~Version Information Section
VERS.                         2.0                 : CWLS log ASCII Standard -VERSION 2.0
WRAP.                         NO                  : One line per depth step
~Well Information Section
STRT.m                        0.0900          : Start index
STOP.m                        1103.4900           : Stop index
STEP.m                        0.1                 : Index step
NULL.                         -999.25             : NULL VALUE
DATE.                         19.11.2013          : Date of recording
TIME.                         22.05               : Time of recording
COMP.                         Lukoil              : Customer company name
WELL.                         1057                : Well name
FLD.                          HAUZAK              : Field name
LOC.                          HAUZAK              : Well location
SRVC.                         PITC                : Logging company
BUSH.                                             : Bush
CTRY.                         Uzbekistan          : Country
STAT.                                             : State
CNTY.                                             : County
API.                                              : API number
PBR.                          1.24                : Plotnost'
VBR.                          50                  : Vyazkost'
VO.                           5.6                 : Vodootdacha
OPER.           Mihaylov I. A. +998907105999      : operator
~Curve Information Section
DEPT.m                                            : 
DEVI.deg                                          : Зенит(гр)
VIZIR.deg                                          : Визир(гр)
AZIM.deg                                          : Азимут(гр)
SPED.mph                                          : Скорость(м/ч)
GRC1.cpm                                       : ГК1(имп/мин)
GR1.ur/h                                         : ГК1(мкр/ч)
GRC2.cpm                                       : ГК2(имп/мин)
GR2.ur/h                                         : ГК2(мкр/ч)
GR.ur/h                                           : ГК(мкр/ч)
SPED.mph                                          : Скорость(м/ч)
~Other Information Section
#    File was produced by KarSar 500 (c) GeoFT    #
Имя записи                                        : Каскад [4].KAR
Дата конвертации                                  : 19.11.2013 23:14:51
Прибор                                            : Каскад
Режим                                             : Основной
Калибровка                                        : ГК-Т № 412 + ИФМ-К-76 № 568
~ASCII Log Data
# ...
1018.4900  0044.5000  0036.1000  0043.9000  0794.0000  8431.7990  0008.4318  7844.8474  0007.8448  0008.0142  0794.0000 
1018.5900  0043.8000  0037.7000  0044.7000  0786.0000  8487.3667  0008.4874  7732.8443  0007.7328  0008.0352  0786.0000 
1018.6900  0043.8000  0040.0800  0044.7000  0786.0000  8138.2586  0008.1383  7539.2807  0007.5393  0007.8938  0786.0000 
1018.7900  0043.9000  0044.6600  0044.7000  0792.0000  8008.3930  0008.0084  7513.8331  0007.5138  0007.7718  0792.0000 
1018.8900  0043.8000  0046.1000  0044.8000  0790.0000  7966.9234  0007.9669  7403.6023  0007.4036  0007.6481  0790.0000 
1018.9900  0044.6200  0046.5400  0043.7400  0793.0000  7986.1764  0007.9862  7290.4652  0007.2905  0007.6128  0793.0000 
1019.0900  0044.8000  0047.3600  0043.5000  0796.0000  7966.7013  0007.9667  7238.7865  0007.2388  0007.6835  0796.0000 
1019.1900  0044.1000  0048.6000  0044.4000  0797.0000  7927.2670  0007.9273  7416.6691  0007.4167  0007.8127  0797.0000 
1019.2900  0044.0000  0049.5000  0044.5000  0795.0000  7903.3009  0007.9033  7671.5401  0007.6715  0007.8404  0795.0000 
1019.3900  0044.8000  0050.0000  0043.6000  0800.0000  8008.1148  0008.0081  7697.6075  0007.6976  0007.6922  0800.0000 
1019.4900  0044.2000  0050.1000  0044.2000  0800.0000  7955.8347  0007.9558  7481.1446  0007.4811  0007.7914  0800.0000 
1019.5900  0044.6000  0050.1000  0043.8000  0806.0000  8015.1783  0008.0152  7621.9703  0007.6220  0007.7212  0806.0000 
1019.6900  0044.1286  0050.2571  0044.3500  0820.0000  8105.6640  0008.1057  7468.1679  0007.4682  0007.7036  0820.0000 
1019.7900  0044.0000  0050.4000  0044.5000  0820.0000  8223.5889  0008.2236  7450.4696  0007.4505  0007.9272  0820.0000 
1019.8900  0045.0000  0050.2000  0043.3000  0782.0000  8381.9211  0008.3819  7762.4095  0007.7624  0007.9735  0782.0000 
1019.9900  0044.3000  0049.8000  0044.1000  0773.0000  8192.7797  0008.1928  7785.4543  0007.7855  0008.0913  0773.0000 
1020.0900  0044.6000  0049.6000  0043.8000  0782.0000  8089.7131  0008.0897  7794.9697  0007.7950  0008.1199  0782.0000 
1020.1900  0044.2000  0049.3000  0044.3000  0793.0000  8236.3723  0008.2364  7810.6878  0007.8107  0007.9504  0793.0000 
1020.2900  0044.4000  0049.3000  0044.2000  0801.0000  8197.4452  0008.1974  7997.7582  0007.9978  0008.1274  0801.0000 
1020.3900  0044.1000  0049.1000  0044.4000  0812.0000  8191.8288  0008.1918  8018.4913  0008.0185  0008.1089  0812.0000 
1020.4900  0044.7000  0048.8000  0043.7000  0795.0000  8266.4603  0008.2665  8022.7368  0008.0227  0008.0751  0795.0000 
1020.5900  0044.9000  0048.6000  0043.4000  0795.0000  8292.1780  0008.2922  7937.1080  0007.9371  0008.1535  0795.0000 
1020.6900  0044.6000  0048.1800  0043.6000  0824.0000  8216.7533  0008.2168  8045.0696  0008.0451  0008.1752  0824.0000 
1020.7900  0044.2000  0047.3000  0044.2000  0824.0000  8181.1481  0008.1811  8058.1294  0008.0581  0008.0933  0824.0000 
1020.8900  0044.1000  0046.4000  0044.3000  0804.0000  8030.8578  0008.0309  7946.1268  0007.9461  0008.0375  0804.0000 
1020.9900  0044.4600  0045.0000  0043.9400  0804.0000  7878.9096  0007.8789  7884.4696  0007.8845  0007.9710  0804.0000 
1021.0900  0044.9000  0044.1000  0043.4000  0799.0000  7840.4207  0007.8404  7873.2584  0007.8733  0007.7676  0799.0000 
1021.1900  0043.7000  0043.0400  0044.8000  0799.0000  7994.5985  0007.9946  7634.4372  0007.6344  0007.7201  0799.0000 
1021.2900  0043.7000  0042.3000  0044.8000  0797.0000  8066.5960  0008.0666  7599.7694  0007.5998  0007.7646  0797.0000 
1021.3900  0044.9500  0041.0500  0043.3000  0797.0000  8083.1137  0008.0831  7493.1976  0007.4932  0007.8235  0797.0000 
1021.4900  0045.2000  0040.0800  0043.0000  0785.0000  7998.1201  0007.9981  7479.9171  0007.4799  0007.8409  0785.0000 
1021.5900  0044.1000  0039.3000  0044.2000  0801.0000  7981.1297  0007.9811  7598.6210  0007.5986  0007.7320  0801.0000 
1021.6900  0043.9000  0038.2000  0044.6000  0804.0000  8225.4903  0008.2255  7458.9452  0007.4589  0007.6324  0804.0000 
1021.7900  0044.6600  0037.4400  0043.6800  0797.0000  8297.7151  0008.2977  7191.5988  0007.1916  0007.6086  0797.0000 
1021.8900  0044.9000  0036.3000  0043.4000  0785.0000  8091.1978  0008.0912  7160.1422  0007.1601  0007.7345  0785.0000 
1021.9900  0044.3000  0035.4000  0044.1000  0785.0000  7928.1672  0007.9282  7019.3449  0007.0193  0007.5303  0785.0000 
1022.0900  0044.1000  0034.3000  0044.3000  0779.0000  7861.8978  0007.8619  6983.7528  0006.9838  0007.4285  0779.0000 
1022.1900  0044.6000  0033.1400  0043.7000  0789.0000  7747.5214  0007.7475  6940.5734  0006.9406  0007.4077  0789.0000 
1022.2900  0044.2000  0031.3750  0044.1000  0789.0000  7669.6520  0007.6697  6936.0067  0006.9360  0007.4219  0789.0000 
1022.3900  0044.6000  0029.9200  0043.8000  0802.0000  7630.9711  0007.6310  7127.8450  0007.1278  0007.4229  0802.0000 
1022.4900  0044.2000  0028.5500  0044.2000  0802.0000  7620.2805  0007.6203  7174.8342  0007.1748  0007.3368  0802.0000 
1022.5900  0045.1000  0026.7500  0043.1000  0794.0000  7649.5697  0007.6496  7029.7737  0007.0298  0007.3168  0794.0000 
1022.6900  0044.3000  0025.5400  0044.0000  0795.0000  7867.3085  0007.8673  7013.2761  0007.0133  0007.3854  0795.0000 
1022.7900  0044.7000  0024.1000  0043.5000  0798.0000  7969.4865  0007.9695  7149.6109  0007.1496  0007.4566  0798.0000 
1022.8900  0044.9000  0022.5000  0043.3000  0792.0000  7792.1967  0007.7922  6993.1823  0006.9932  0007.4720  0792.0000 
1022.9900  0045.2000  0021.0200  0043.0000  0792.0000  7973.3803  0007.9734  6974.4827  0006.9745  0007.4202  0792.0000 
1023.0900  0043.8000  0020.2000  0044.6000  0796.0000  8064.2483  0008.0642  7063.1857  0007.0632  0007.5848  0796.0000 
1023.1900  0044.5400  0019.1600  0043.7600  0789.0000  7949.1322  0007.9491  7178.2185  0007.1782  0007.6285  0789.0000 
1023.2900  0045.1000  0018.5400  0043.1000  0800.0000  8056.8007  0008.0568  7296.7042  0007.2967  0007.7041  0800.0000 
1023.3900  0045.1000  0017.8600  0043.1000  0800.0000  8084.5803  0008.0846  7439.3471  0007.4393  0007.7229  0800.0000 
1023.4900  0044.0000  0017.3000  0044.4600  0797.0000  8111.8069  0008.1118  7453.8849  0007.4539  0007.7377  0797.0000 
1023.5900  0043.8000  0017.1000  0044.7000  0795.0000  8239.5305  0008.2395  7349.4207  0007.3494  0007.7811  0795.0000 
1023.6900  0044.1000  0016.8000  0043.9000  0805.0000  8283.5613  0008.2836  7443.2410  0007.4432  0007.8537  0805.0000 
1023.7900  0043.9000  0015.8000  0043.8000  0807.0000  8165.9137  0008.1659  7454.2757  0007.4543  0007.7620  0807.0000 
1023.8900  0044.6000  0015.3000  0043.7000  0798.0000  8232.4510  0008.2325  7319.3628  0007.3194  0007.7351  0798.0000 
1023.9900  0045.7400  0015.1000  0042.5200  0790.0000  8505.2667  0008.5053  7304.2513  0007.3043  0007.7677  0790.0000 
1024.0900  0046.1000  0014.6500  0042.1000  0790.0000  8619.4387  0008.6194  7277.8910  0007.2779  0007.9428  0790.0000 
1024.1900  0043.4000  0013.7000  0045.1500  0797.0000  8348.5570  0008.3486  7350.8179  0007.3508  0007.9894  0797.0000 
1024.2900  0043.3000  0013.4000  0045.3000  0803.0000  8527.7601  0008.5278  7372.7236  0007.3727  0007.8614  0803.0000 
1024.3900  0045.4000  0015.7000  0042.9000  0812.9000  8589.9500  0008.5899  7478.7835  0007.4788  0007.9830  0812.9000 
1024.4900  0045.4000  0015.9000  0042.9000  0814.0000  8277.9872  0008.2780  7490.4036  0007.4904  0007.8634  0814.0000 
1024.5900  0044.3000  0015.0000  0044.1000  0801.0000  8121.1559  0008.1212  7349.4716  0007.3495  0007.8306  0801.0000 
1024.6900  0044.0000  0014.5000  0044.4000  0792.0000  8007.1233  0008.0071  7480.2480  0007.4802  0007.8063  0792.0000 
1024.7900  0045.1000  0013.7000  0043.1000  0804.0000  7983.9603  0007.9840  7513.4588  0007.5135  0007.7406  0804.0000 
1024.8900  0044.8000  0012.8000  0043.9000  0787.8000  8020.4115  0008.0204  7477.6730  0007.4777  0007.7287  0787.8000 
1024.9900  0043.0000  0011.6000  0045.6000  0775.0000  7862.9465  0007.8629  7461.6948  0007.4617  0007.7914  0775.0000 
1025.0900  0045.0000  0010.8600  0043.3000  0775.0000  7808.2860  0007.8083  7602.0837  0007.6021  0007.6817  0775.0000 
