~Version Information Section
VERS.                         2.0                 : CWLS log ASCII Standard -VERSION 2.0
WRAP.                         NO                  : One line per depth step
~Well Information Section
STRT.m                        0.0900          : Start index
STOP.m                        1103.4900           : Stop index
STEP.m                        0.1                 : Index step
NULL.                         -999.25             : NULL VALUE
DATE.                         19.11.2013          : Date of recording
TIME.                         22.05               : Time of recording
COMP.                         Lukoil              : Customer company name
WELL.                         1057                : Well name
FLD.                          HAUZAK              : Field name
LOC.                          HAUZAK              : Well location
SRVC.                         PITC                : Logging company
BUSH.                                             : Bush
CTRY.                         Uzbekistan          : Country
STAT.                                             : State
CNTY.                                             : County
API.                                              : API number
PBR.                          1.24                : Plotnost'
VBR.                          50                  : Vyazkost'
VO.                           5.6                 : Vodootdacha
OPER.           Mihaylov I. A. +998907105999      : operator
~Curve Information Section
DEPT.m                                            : 
DEVI.deg                                          : Зенит(гр)
VIZIR.deg                                          : Визир(гр)
AZIM.deg                                          : Азимут(гр)
SPED.mph                                          : Скорость(м/ч)
GRC1.cpm                                       : ГК1(имп/мин)
GR1.ur/h                                         : ГК1(мкр/ч)
GRC2.cpm                                       : ГК2(имп/мин)
GR2.ur/h                                         : ГК2(мкр/ч)
GR.ur/h                                           : ГК(мкр/ч)
SPED.mph                                          : Скорость(м/ч)
~Other Information Section
#    File was produced by KarSar 500 (c) GeoFT    #
Имя записи                                        : Каскад [4].KAR
Дата конвертации                                  : 19.11.2013 23:14:51
Прибор                                            : Каскад
Режим                                             : Основной
Калибровка                                        : ГК-Т № 412 + ИФМ-К-76 № 568
~ASCII Log Data
# ...
0804.0900  0035.6000  0027.6000  0044.7000  0760.0000  5108.4667  0005.1085  3698.8675  0003.6989  0004.4907  0760.0000 
0804.1900  0034.9000  0028.2800  0045.5000  0771.0000  5052.0968  0005.0521  3764.9078  0003.7649  0004.3843  0771.0000 
0804.2900  0034.7000  0028.9000  0045.8000  0771.0000  5117.1947  0005.1172  3667.1406  0003.6671  0004.3538  0771.0000 
0804.3900  0035.3000  0028.9000  0045.8000  0765.0000  5037.0590  0005.0371  3655.4199  0003.6554  0004.4404  0765.0000 
0804.4900  0035.8000  0029.6000  0044.4000  0761.0000  5015.6815  0005.0157  3763.6709  0003.7637  0004.3883  0761.0000 
0804.5900  0035.5600  0030.1000  0044.8200  0756.0000  5106.0270  0005.1060  3746.2712  0003.7463  0004.3808  0756.0000 
0804.6900  0034.6400  0030.2000  0045.8800  0740.0000  5129.7354  0005.1297  3755.4954  0003.7555  0004.4214  0740.0000 
0804.7900  0034.4000  0030.0000  0046.2000  0736.0000  4997.6619  0004.9977  3725.3619  0003.7254  0004.4258  0736.0000 
0804.8900  0035.7000  0030.3000  0044.6000  0727.0000  5150.6362  0005.1506  3783.7253  0003.7837  0004.3901  0727.0000 
0804.9900  0035.7000  0030.6000  0044.6000  0727.0000  5365.9000  0005.3659  3670.4489  0003.6704  0004.4521  0727.0000 
0805.0900  0034.7000  0030.4000  0045.8000  0742.0000  5460.1181  0005.4601  3657.0994  0003.6571  0004.6076  0742.0000 
0805.1900  0035.7000  0030.3000  0044.7000  0755.0000  5371.2742  0005.3713  3826.3422  0003.8263  0004.6552  0755.0000 
0805.2900  0035.7000  0031.2800  0044.7000  0755.0000  5207.7811  0005.2078  3851.3829  0003.8514  0004.5607  0755.0000 
0805.3900  0035.3000  0033.3200  0045.1000  0741.0000  5045.5607  0005.0456  3751.9759  0003.7520  0004.4581  0741.0000 
0805.4900  0035.2000  0035.3000  0045.2000  0741.0000  4882.2605  0004.8823  3724.3401  0003.7243  0004.4086  0741.0000 
0805.5900  0035.0000  0037.3000  0045.4000  0746.0000  4832.3044  0004.8323  3795.3535  0003.7954  0004.3185  0746.0000 
0805.6900  0035.0000  0038.2000  0045.4000  0741.0000  5100.4007  0005.1004  3803.4458  0003.8034  0004.2978  0741.0000 
0805.7900  0035.5000  0039.4000  0044.9000  0739.0000  5152.5892  0005.1526  3763.3774  0003.7634  0004.4328  0739.0000 
0805.8900  0035.7000  0040.0000  0044.7000  0725.0000  5223.3694  0005.2234  3755.6066  0003.7556  0004.4452  0725.0000 
0805.9900  0035.1800  0041.0000  0045.2400  0725.0000  5267.8508  0005.2679  3728.2449  0003.7282  0004.5204  0725.0000 
0806.0900  0035.1000  0041.8000  0045.4000  0749.0000  5328.0512  0005.3281  3820.6946  0003.8207  0004.5382  0749.0000 
0806.1900  0035.5000  0042.5400  0045.0000  0759.0000  5399.7303  0005.3997  3831.2751  0003.8313  0004.5447  0759.0000 
0806.2900  0035.8000  0043.6000  0044.6000  0759.0000  5421.1867  0005.4212  3752.0687  0003.7521  0004.5773  0759.0000 
0806.3900  0035.8000  0045.0600  0044.6000  0742.0000  5343.7592  0005.3438  3746.9045  0003.7469  0004.5851  0742.0000 
0806.4900  0035.7500  0046.4000  0044.5500  0755.0000  5461.7892  0005.4618  3818.9830  0003.8190  0004.6878  0755.0000 
0806.5900  0035.9000  0047.5667  0044.4000  0762.0000  5522.7704  0005.5228  3987.3411  0003.9873  0004.7133  0762.0000 
0806.6900  0035.1000  0049.0000  0045.3000  0738.0000  5541.5088  0005.5415  4005.1471  0004.0051  0004.7256  0738.0000 
0806.7900  0035.6000  0050.5400  0044.7000  0736.0000  5446.8110  0005.4468  3861.8445  0003.8618  0004.7441  0736.0000 
0806.8900  0035.0000  0051.2500  0045.4000  0729.0000  5571.0420  0005.5710  4033.1268  0004.0331  0004.7628  0729.0000 
0806.9900  0034.9000  0051.6400  0045.5000  0748.0000  5604.7415  0005.6047  4043.7868  0004.0438  0004.8748  0748.0000 
0807.0900  0035.4000  0052.4000  0044.9000  0750.0000  5727.6177  0005.7276  4183.0640  0004.1831  0004.9017  0750.0000 
0807.1900  0034.8000  0053.1000  0045.6000  0758.0000  5783.3449  0005.7833  4003.6954  0004.0037  0004.9636  0758.0000 
0807.2900  0036.2000  0054.4000  0044.0000  0758.0000  5644.4458  0005.6444  3982.0229  0003.9820  0005.0071  0758.0000 
0807.3900  0034.9800  0055.2800  0044.0000  0754.0000  5596.7662  0005.5968  4230.8689  0004.2309  0004.9357  0754.0000 
0807.4900  0034.9000  0055.8000  0045.5000  0759.0000  5585.6652  0005.5857  4242.8767  0004.2429  0004.8552  0759.0000 
0807.5900  0035.6000  0056.5000  0044.7000  0763.0000  5607.4276  0005.6074  4099.1846  0004.0992  0004.8154  0763.0000 
0807.6900  0035.2000  0057.0000  0045.2000  0763.0000  5483.1908  0005.4832  4041.2330  0004.0412  0004.8102  0763.0000 
0807.7900  0034.9800  0057.0000  0045.4200  0749.0000  5340.0470  0005.3400  4036.6300  0004.0366  0004.7776  0749.0000 
0807.8900  0034.9000  0056.4000  0045.5000  0749.0000  5303.3866  0005.3034  4097.4242  0004.0974  0004.6926  0749.0000 
0807.9900  0035.6000  0056.4000  0044.7000  0742.0000  5446.5920  0005.4466  4103.5631  0004.1036  0004.6746  0742.0000 
0808.0900  0035.6000  0055.8000  0044.8000  0741.0000  5594.7997  0005.5948  4144.8951  0004.1449  0004.8909  0741.0000 
0808.1900  0034.9000  0054.9500  0045.5000  0736.0000  5646.2321  0005.6462  4347.0369  0004.3470  0005.0235  0736.0000 
0808.2900  0034.4000  0054.4000  0046.0000  0743.2308  5551.7609  0005.5518  4443.4378  0004.4434  0005.0942  0743.2308 
0808.3900  0035.4000  0054.3000  0044.8000  0750.0000  5511.3509  0005.5114  4553.5245  0004.5535  0005.0071  0750.0000 
0808.4900  0035.5000  0054.8000  0044.7000  0739.0000  5541.2507  0005.5413  4564.8284  0004.5648  0004.9569  0739.0000 
0808.5900  0035.1000  0054.1500  0045.2000  0739.0000  5516.3277  0005.5163  4369.1085  0004.3691  0004.9237  0739.0000 
0808.6900  0035.7000  0053.6000  0044.5000  0749.0000  5537.3527  0005.5374  4321.9458  0004.3219  0004.9170  0749.0000 
0808.7900  0035.7000  0052.9000  0044.5000  0750.0000  5496.0989  0005.4961  4372.5496  0004.3725  0004.9673  0750.0000 
0808.8900  0034.9750  0051.8500  0045.4500  0739.0000  5447.8722  0005.4479  4432.2573  0004.4323  0004.9990  0739.0000 
0808.9900  0034.9000  0050.4000  0045.6000  0733.0000  5426.5628  0005.4266  4510.6906  0004.5107  0005.0289  0733.0000 
0809.0900  0035.5000  0049.3000  0044.7000  0727.0000  5630.5533  0005.6306  4628.6801  0004.6287  0005.0345  0727.0000 
0809.1900  0035.6000  0048.6000  0044.7000  0734.0000  5804.5079  0005.8045  4640.8953  0004.6409  0005.0541  0734.0000 
0809.2900  0035.0250  0047.5250  0045.3750  0747.0000  5935.8173  0005.9358  4431.0181  0004.4310  0005.1418  0747.0000 
0809.3900  0034.8000  0046.5000  0045.6000  0747.0000  6003.7815  0006.0038  4413.6027  0004.4136  0005.3123  0747.0000 
0809.4900  0035.5000  0045.4000  0044.8000  0740.0000  6090.7557  0006.0908  4699.6960  0004.6997  0005.4360  0740.0000 
0809.5900  0035.1000  0044.4000  0044.8000  0739.0000  6197.5442  0006.1975  4881.8017  0004.8818  0005.5598  0739.0000 
0809.6900  0035.4000  0044.0923  0044.8000  0750.0000  6249.4067  0006.2494  5033.0104  0005.0330  0005.7010  0750.0000 
0809.7900  0035.0500  0043.5500  0045.3000  0750.0000  6160.5577  0006.1606  5212.0615  0005.2121  0005.7358  0750.0000 
0809.8900  0034.8000  0042.8000  0045.6000  0741.0000  6323.5218  0006.3235  5230.3056  0005.2303  0005.6585  0741.0000 
0809.9900  0035.5000  0041.6000  0044.7000  0734.0000  6549.7394  0006.5497  5164.6140  0005.1646  0005.8805  0734.0000 
0810.0900  0034.9000  0040.7000  0045.4000  0742.0000  6655.3529  0006.6554  5439.4760  0005.4395  0006.0689  0742.0000 
0810.1900  0035.6500  0039.1500  0044.5500  0742.0000  6831.1490  0006.8311  5580.5024  0005.5805  0006.1215  0742.0000 
0810.2900  0035.9000  0037.6000  0044.3000  0757.0000  6912.9856  0006.9130  5592.7074  0005.5927  0006.2227  0757.0000 
0810.3900  0034.6000  0036.1000  0045.8000  0757.0000  7056.4105  0007.0564  5578.1680  0005.5782  0006.2468  0757.0000 
0810.4900  0035.8000  0035.3000  0044.3000  0748.0000  7115.1246  0007.1151  5595.4994  0005.5955  0006.3160  0748.0000 
0810.5900  0036.1000  0033.6000  0044.0000  0756.0000  6925.8972  0006.9259  5553.6317  0005.5536  0006.3332  0756.0000 
0810.6900  0035.1000  0032.4000  0045.2000  0768.0000  6646.5176  0006.6465  5605.7212  0005.6057  0006.2624  0768.0000 
