~Version Information Section
VERS.                         2.0                 : CWLS log ASCII Standard -VERSION 2.0
WRAP.                         NO                  : One line per depth step
~Well Information Section
STRT.m                        0.0900          : Start index
STOP.m                        1103.4900           : Stop index
STEP.m                        0.1                 : Index step
NULL.                         -999.25             : NULL VALUE
DATE.                         19.11.2013          : Date of recording
TIME.                         22.05               : Time of recording
COMP.                         Lukoil              : Customer company name
WELL.                         1057                : Well name
FLD.                          HAUZAK              : Field name
LOC.                          HAUZAK              : Well location
SRVC.                         PITC                : Logging company
BUSH.                                             : Bush
CTRY.                         Uzbekistan          : Country
STAT.                                             : State
CNTY.                                             : County
API.                                              : API number
PBR.                          1.24                : Plotnost'
VBR.                          50                  : Vyazkost'
VO.                           5.6                 : Vodootdacha
OPER.           Mihaylov I. A. +998907105999      : operator
~Curve Information Section
DEPT.m                                            : 
DEVI.deg                                          : Зенит(гр)
VIZIR.deg                                          : Визир(гр)
AZIM.deg                                          : Азимут(гр)
SPED.mph                                          : Скорость(м/ч)
GRC1.cpm                                       : ГК1(имп/мин)
GR1.ur/h                                         : ГК1(мкр/ч)
GRC2.cpm                                       : ГК2(имп/мин)
GR2.ur/h                                         : ГК2(мкр/ч)
GR.ur/h                                           : ГК(мкр/ч)
SPED.mph                                          : Скорость(м/ч)
~Other Information Section
#    File was produced by KarSar 500 (c) GeoFT    #
Имя записи                                        : Каскад [4].KAR
Дата конвертации                                  : 19.11.2013 23:14:51
Прибор                                            : Каскад
Режим                                             : Основной
Калибровка                                        : ГК-Т № 412 + ИФМ-К-76 № 568
~ASCII Log Data
# ...
0154.1900  0001.9000  0217.5000  0041.2000  0752.0000  6149.0394  0006.1490  6357.6233  0006.3576  0006.4032  0752.0000 
0154.2900  0001.9000  0217.4000  0041.6000  0749.0000  6325.4622  0006.3255  6469.9807  0006.4700  0006.3095  0749.0000 
0154.3900  0001.9000  0217.8000  0041.3000  0741.0000  6409.5334  0006.4095  6638.1841  0006.6382  0006.5610  0741.0000 
0154.4900  0001.9000  0217.8000  0041.3000  0736.0000  6490.7037  0006.4907  6817.5024  0006.8175  0006.6933  0736.0000 
0154.5900  0001.9000  0217.9000  0041.5000  0736.0000  6518.2136  0006.5182  7009.9626  0007.0100  0006.7990  0736.0000 
0154.6900  0001.9000  0217.9000  0041.5000  0743.0000  6473.6686  0006.4737  7120.1035  0007.1201  0006.8192  0743.0000 
0154.7900  0001.9000  0217.7000  0041.7000  0736.0000  6536.8039  0006.5368  7120.1035  0007.1201  0006.7704  0736.0000 
0154.8900  0001.9000  0218.2000  0041.5000  0734.0000  6516.0872  0006.5161  7146.6269  0007.1466  0006.8417  0734.0000 
0154.9900  0001.9000  0218.5000  0041.5000  0746.0000  6448.9657  0006.4490  7063.4807  0007.0635  0006.7999  0746.0000 
0155.0900  0001.9000  0218.5000  0041.7000  0746.0000  6598.3146  0006.5983  7063.4807  0007.0635  0006.7337  0746.0000 
0155.1900  0001.9000  0218.6000  0041.4000  0726.0000  6700.7054  0006.7007  7009.4138  0007.0094  0006.7167  0726.0000 
0155.2900  0002.0000  0218.7000  0041.6250  0726.0000  6712.5567  0006.7126  6966.5364  0006.9665  0006.8897  0726.0000 
0155.3900  0001.9000  0218.4000  0041.7000  0724.0000  6752.2586  0006.7523  7101.7652  0007.1018  0006.9366  0724.0000 
0155.4900  0002.0000  0218.2000  0041.5000  0724.0000  6836.2843  0006.8363  7209.5564  0007.2096  0006.9439  0724.0000 
0155.5900  0002.0000  0218.5000  0041.5000  0734.0000  6927.9310  0006.9279  7028.1662  0007.0282  0006.9717  0734.0000 
0155.6900  0002.0000  0218.5000  0041.6000  0756.0000  6957.5971  0006.9576  7028.1662  0007.0282  0006.9958  0756.0000 
0155.7900  0002.0000  0218.5000  0041.6000  0756.0000  6896.6798  0006.8967  7117.5922  0007.1176  0006.9998  0756.0000 
0155.8900  0002.0000  0218.3000  0041.6000  0751.0000  6997.3045  0006.9973  7037.8593  0007.0379  0007.0827  0751.0000 
0155.9900  0002.0000  0218.0750  0041.4000  0765.0000  7027.1933  0007.0272  7209.3474  0007.2093  0006.9477  0765.0000 
0156.0900  0002.0000  0217.7000  0041.7000  0765.0000  7153.0643  0007.1531  6840.4994  0006.8405  0006.8941  0765.0000 
0156.1900  0002.0000  0217.7000  0041.4000  0751.0000  7201.6362  0007.2016  6732.1053  0006.7321  0006.9613  0751.0000 
0156.2900  0002.0000  0217.5000  0041.4000  0737.0000  7130.7174  0007.1307  6732.1053  0006.7321  0007.0715  0737.0000 
0156.3900  0002.0000  0217.5000  0041.3000  0724.0000  7036.3830  0007.0364  6985.8697  0006.9859  0007.0946  0724.0000 
0156.4900  0002.0000  0217.6000  0041.3000  0720.0000  6838.8600  0006.8389  7003.7565  0007.0038  0006.8798  0720.0000 
0156.5900  0002.0000  0217.6000  0041.4000  0730.0000  6765.8216  0006.7658  6664.4962  0006.6645  0006.7884  0730.0000 
0156.6900  0002.0000  0217.3200  0041.1000  0737.0000  6689.7944  0006.6898  6664.4962  0006.6645  0006.8816  0737.0000 
0156.7900  0002.0000  0217.2000  0041.4000  0738.0000  6603.1045  0006.6031  6923.7621  0006.9238  0006.9079  0738.0000 
0156.8900  0002.0000  0217.5000  0041.1000  0745.0000  6703.2971  0006.7033  6976.4050  0006.9764  0006.7898  0745.0000 
0156.9900  0002.0000  0217.5000  0041.4000  0745.0000  6771.6203  0006.7716  7021.5442  0007.0215  0006.9317  0745.0000 
0157.0900  0002.0000  0217.3000  0041.1000  0745.0000  6937.3346  0006.9373  7183.0914  0007.1831  0006.9583  0745.0000 
0157.1900  0002.0000  0217.5500  0041.1000  0745.0000  7246.9087  0007.2469  7183.0914  0007.1831  0007.0719  0745.0000 
0157.2900  0002.0000  0217.7000  0041.0000  0737.0000  7487.8790  0007.4879  7199.6068  0007.1996  0007.2420  0737.0000 
0157.3900  0002.0000  0217.7000  0040.9000  0736.0000  7663.8301  0007.6638  7202.5373  0007.2025  0007.4938  0736.0000 
0157.4900  0002.0000  0217.4000  0041.3000  0748.0000  7784.3237  0007.7843  7549.6925  0007.5497  0007.6236  0748.0000 
0157.5900  0002.0000  0217.3000  0041.0000  0755.0000  7815.5223  0007.8155  7570.8491  0007.5708  0007.6649  0755.0000 
0157.6900  0002.0000  0217.2600  0041.0000  0761.0000  7620.4820  0007.6205  7526.7342  0007.5267  0007.6705  0761.0000 
0157.7900  0002.1000  0217.1000  0041.2000  0763.0000  7498.5623  0007.4986  7457.2089  0007.4572  0007.5443  0763.0000 
0157.8900  0002.1000  0217.0000  0040.9500  0740.0000  7432.6689  0007.4327  7457.2089  0007.4572  0007.4558  0740.0000 
0157.9900  0002.0000  0217.2000  0040.9000  0732.0000  7629.1058  0007.6291  7396.5609  0007.3966  0007.4342  0732.0000 
0158.0900  0002.1000  0216.8000  0041.1000  0729.0000  7742.1855  0007.7422  7396.5609  0007.3966  0007.4662  0729.0000 
0158.1900  0002.1000  0216.6000  0041.3000  0707.0000  7599.3254  0007.5993  7226.6798  0007.2267  0007.5554  0707.0000 
0158.2900  0002.0000  0216.5000  0040.9000  0696.0000  7364.2466  0007.3642  7226.6798  0007.2267  0007.5756  0696.0000 
0158.3900  0002.1000  0216.2000  0041.2000  0696.0000  7180.9421  0007.1809  7400.5979  0007.4006  0007.4367  0696.0000 
0158.4900  0002.1000  0216.0000  0040.9000  0697.0000  7133.6476  0007.1336  7567.0535  0007.5671  0007.4292  0697.0000 
0158.5900  0002.1000  0215.9000  0040.9000  0698.0000  7247.6186  0007.2476  7801.2080  0007.8012  0007.3929  0698.0000 
0158.6900  0002.1000  0215.8000  0041.1000  0720.0000  7398.9429  0007.3989  7801.2080  0007.8012  0007.3742  0720.0000 
0158.7900  0002.1000  0215.7400  0041.1000  0739.0000  7507.0177  0007.5070  7526.2417  0007.5262  0007.4088  0739.0000 
0158.8900  0002.1000  0215.4000  0040.8000  0745.0000  7533.5885  0007.5336  7293.5443  0007.2935  0007.4420  0745.0000 
0158.9900  0002.1000  0215.1000  0041.2000  0750.0000  7188.5287  0007.1885  7293.5443  0007.2935  0007.4602  0750.0000 
0159.0900  0002.1000  0215.0000  0040.9000  0757.0000  7094.1408  0007.0941  7386.8140  0007.3868  0007.2364  0757.0000 
0159.1900  0002.1000  0214.8000  0040.9000  0764.0000  7269.5930  0007.2696  7311.7304  0007.3117  0007.2029  0764.0000 
0159.2900  0002.1000  0214.7000  0041.1000  0751.0000  7436.7457  0007.4367  7341.5450  0007.3415  0007.2858  0751.0000 
0159.3900  0002.1000  0214.6000  0041.1000  0736.0000  7612.3675  0007.6124  7149.2032  0007.1492  0007.2179  0736.0000 
0159.4900  0002.1000  0214.9000  0040.8000  0727.0000  7660.0468  0007.6600  7066.4262  0007.0664  0007.4247  0727.0000 
0159.5900  0002.1000  0214.3000  0040.6000  0715.0000  7682.7197  0007.6827  7259.7151  0007.2597  0007.4599  0715.0000 
0159.6900  0002.1000  0214.4571  0040.6000  0707.0000  7716.5976  0007.7166  6981.3087  0006.9813  0007.2925  0707.0000 
0159.7900  0002.1000  0214.4000  0040.8000  0668.0000  7578.1390  0007.5781  6981.3087  0006.9813  0007.4139  0668.0000 
0159.8900  0002.1000  0214.2000  0040.9000  0668.0000  7416.7885  0007.4168  7158.9652  0007.1590  0007.3899  0668.0000 
0159.9900  0002.1000  0214.1000  0040.7000  0675.0000  7364.6897  0007.3647  7228.7982  0007.2288  0007.4214  0675.0000 
0160.0900  0002.1000  0214.0200  0040.8400  0688.0000  7628.1717  0007.6282  7497.1436  0007.4971  0007.4663  0688.0000 
0160.1900  0002.1000  0213.9000  0040.7000  0720.0000  7761.7904  0007.7618  7497.1530  0007.4972  0007.5501  0720.0000 
0160.2900  0002.1000  0213.7000  0040.9000  0720.0000  7891.5865  0007.8916  7434.4806  0007.4345  0007.7202  0720.0000 
0160.3900  0002.1000  0214.1500  0040.4750  0713.0000  8163.9310  0008.1639  7729.0606  0007.7291  0007.8426  0713.0000 
0160.4900  0002.1000  0214.3000  0040.4000  0720.0000  8392.8940  0008.3929  7791.1698  0007.7912  0008.0326  0720.0000 
0160.5900  0002.1000  0214.0000  0040.7000  0723.0000  8449.2395  0008.4492  7888.1179  0007.8881  0008.1248  0723.0000 
0160.6900  0002.2000  0213.8000  0040.7000  0729.0000  8297.4562  0008.2975  7888.1179  0007.8881  0008.0464  0729.0000 
0160.7900  0002.2000  0213.6500  0040.5000  0734.0000  8284.4045  0008.2844  7744.2230  0007.7442  0008.0237  0734.0000 
