~Version Information Section
VERS.                         2.0                 : CWLS log ASCII Standard -VERSION 2.0
WRAP.                         NO                  : One line per depth step
~Well Information Section
STRT.m                        0.0900          : Start index
STOP.m                        1103.4900           : Stop index
STEP.m                        0.1                 : Index step
NULL.                         -999.25             : NULL VALUE
DATE.                         19.11.2013          : Date of recording
TIME.                         22.05               : Time of recording
COMP.                         Lukoil              : Customer company name
WELL.                         1057                : Well name
FLD.                          HAUZAK              : Field name
LOC.                          HAUZAK              : Well location
SRVC.                         PITC                : Logging company
BUSH.                                             : Bush
CTRY.                         Uzbekistan          : Country
STAT.                                             : State
CNTY.                                             : County
API.                                              : API number
PBR.                          1.24                : Plotnost'
VBR.                          50                  : Vyazkost'
VO.                           5.6                 : Vodootdacha
OPER.           Mihaylov I. A. +998907105999      : operator
~Curve Information Section
DEPT.m                                            : 
DEVI.deg                                          : Зенит(гр)
VIZIR.deg                                          : Визир(гр)
AZIM.deg                                          : Азимут(гр)
SPED.mph                                          : Скорость(м/ч)
GRC1.cpm                                       : ГК1(имп/мин)
GR1.ur/h                                         : ГК1(мкр/ч)
GRC2.cpm                                       : ГК2(имп/мин)
GR2.ur/h                                         : ГК2(мкр/ч)
GR.ur/h                                           : ГК(мкр/ч)
SPED.mph                                          : Скорость(м/ч)
~Other Information Section
#    File was produced by KarSar 500 (c) GeoFT    #
Имя записи                                        : Каскад [4].KAR
Дата конвертации                                  : 19.11.2013 23:14:51
Прибор                                            : Каскад
Режим                                             : Основной
Калибровка                                        : ГК-Т № 412 + ИФМ-К-76 № 568
~ASCII Log Data
# ...
0877.7900  0039.4000  0054.5000  0043.3000  0747.0000  7016.2772  0007.0163  5638.3042  0005.6383  0006.2628  0747.0000 
0877.8900  0039.7000  0052.2000  0043.0000  0736.0000  6934.5632  0006.9346  5648.2838  0005.6483  0006.1879  0736.0000 
0877.9900  0038.2000  0049.2000  0044.6000  0736.0000  6975.6940  0006.9757  5411.1369  0005.4111  0006.1659  0736.0000 
0878.0900  0038.2000  0045.9000  0044.7000  0740.0000  6917.1022  0006.9171  5550.4178  0005.5504  0006.2716  0740.0000 
0878.1900  0039.8000  0042.7000  0042.8000  0749.0000  6869.2229  0006.8692  5567.4293  0005.5674  0006.2247  0749.0000 
0878.2900  0038.8000  0041.2000  0043.9000  0755.0000  6640.2198  0006.6402  5522.2600  0005.5223  0006.1087  0755.0000 
0878.3900  0038.7000  0039.3000  0044.0000  0755.0000  6283.2485  0006.2832  5327.2910  0005.3273  0005.9721  0755.0000 
0878.4900  0039.6000  0037.3750  0043.1000  0740.0000  6170.4776  0006.1705  5303.1029  0005.3031  0005.7607  0740.0000 
0878.5900  0039.6000  0035.5000  0043.1000  0733.0000  6057.2974  0006.0573  5267.2484  0005.2672  0005.7108  0733.0000 
0878.6900  0038.7000  0033.8000  0044.2000  0724.0000  5978.0534  0005.9781  5215.6512  0005.2157  0005.5689  0724.0000 
0878.7900  0039.5000  0032.1500  0043.3000  0724.0000  5939.0275  0005.9390  5088.4292  0005.0884  0005.5238  0724.0000 
0878.8900  0039.8000  0029.4000  0043.0000  0735.0000  5924.9386  0005.9249  5071.1567  0005.0712  0005.4603  0735.0000 
0878.9900  0038.3800  0027.6400  0044.6000  0738.0000  5966.5785  0005.9666  4975.7311  0004.9757  0005.4438  0738.0000 
0879.0900  0037.8000  0026.6000  0045.4000  0745.0000  5854.9005  0005.8549  4924.9606  0004.9250  0005.3768  0745.0000 
0879.1900  0039.2000  0025.8000  0043.7000  0746.0000  5833.4568  0005.8335  4825.7622  0004.8258  0005.3589  0746.0000 
0879.2900  0039.6000  0024.5000  0043.3000  0748.0000  5848.1765  0005.8482  4815.2366  0004.8152  0005.3335  0748.0000 
0879.3900  0039.3000  0023.6000  0043.6000  0751.0000  5858.1920  0005.8582  4883.6693  0004.8837  0005.3713  0751.0000 
0879.4900  0039.0000  0022.2000  0044.0000  0740.0000  5926.1067  0005.9261  4913.9243  0004.9139  0005.3975  0740.0000 
0879.5900  0038.7000  0021.1667  0044.3000  0734.0000  6019.2415  0006.0192  4935.0617  0004.9351  0005.4013  0734.0000 
0879.6900  0039.0200  0020.7867  0043.9267  0734.0000  6120.9302  0006.1209  4840.1370  0004.8401  0005.4297  0734.0000 
0879.7900  0039.4200  0020.4200  0043.4800  0738.0000  6176.0322  0006.1760  4829.4767  0004.8295  0005.4962  0738.0000 
0879.8900  0039.1000  0019.5000  0043.9000  0740.0000  6186.2899  0006.1863  4864.8165  0004.8648  0005.5269  0740.0000 
0879.9900  0039.0000  0018.2000  0044.1000  0748.0000  6140.4696  0006.1405  4874.9739  0004.8750  0005.5334  0748.0000 
0880.0900  0039.3000  0016.7000  0043.7000  0748.0000  6053.3214  0006.0533  4912.9783  0004.9130  0005.5216  0748.0000 
0880.1900  0039.0000  0015.5000  0044.1000  0740.0000  6011.3611  0006.0114  4917.1222  0004.9171  0005.5052  0740.0000 
0880.2900  0038.9000  0014.7000  0043.7500  0746.0000  6148.4274  0006.1484  4977.3297  0004.9773  0005.4613  0746.0000 
0880.3900  0039.7000  0013.6800  0043.3000  0750.0000  6241.0645  0006.2411  4985.8193  0004.9858  0005.4512  0750.0000 
0880.4900  0039.1000  0012.8000  0043.9000  0753.0000  6291.6168  0006.2916  4835.8749  0004.8359  0005.5663  0753.0000 
0880.5900  0039.0000  0012.2000  0044.0000  0743.0000  6362.9115  0006.3629  4829.4436  0004.8294  0005.5781  0743.0000 
0880.6900  0039.5000  0011.4200  0043.5000  0743.0000  6203.5665  0006.2036  4752.6657  0004.7527  0005.5217  0743.0000 
0880.7900  0039.5000  0010.7500  0043.9000  0737.0000  6029.8089  0006.0298  4736.1682  0004.7362  0005.6031  0737.0000 
0880.8900  0039.0000  0010.2000  0044.0000  0737.0000  5963.8493  0005.9638  4961.9354  0004.9619  0005.4989  0737.0000 
0880.9900  0039.2000  0010.1000  0043.8000  0760.0000  6052.5459  0006.0525  4982.0954  0004.9821  0005.6096  0760.0000 
0881.0900  0039.5000  0010.1000  0043.4000  0760.0000  6146.8570  0006.1469  5293.5670  0005.2936  0005.6709  0760.0000 
0881.1900  0039.5000  0010.2000  0043.4000  0748.0000  6201.3407  0006.2013  5328.1214  0005.3281  0005.6789  0748.0000 
0881.2900  0039.2000  0010.3000  0043.9000  0740.0000  6215.1984  0006.2152  5196.2629  0005.1963  0005.6499  0740.0000 
0881.3900  0039.4000  0010.6000  0043.6000  0757.0000  6238.0663  0006.2381  5081.8537  0005.0819  0005.6301  0757.0000 
0881.4900  0039.6000  0011.1250  0043.4000  0757.0000  6156.2838  0006.1563  5050.0927  0005.0501  0005.6617  0757.0000 
0881.5900  0039.3500  0011.6000  0043.7500  0732.0000  6054.3307  0006.0543  5084.8601  0005.0849  0005.5896  0732.0000 
0881.6900  0039.3000  0012.0000  0043.8000  0727.0000  6161.2335  0006.1612  5029.9648  0005.0300  0005.5694  0727.0000 
0881.7900  0039.5000  0012.3000  0043.6000  0726.0000  6259.6554  0006.2597  5218.5060  0005.2185  0005.7816  0726.0000 
0881.8900  0039.7000  0012.5250  0043.3000  0729.0000  6310.1201  0006.3101  5400.7813  0005.4008  0005.8582  0729.0000 
0881.9900  0039.1000  0012.7500  0044.0000  0734.0000  6326.2813  0006.3263  5454.9365  0005.4549  0005.8827  0734.0000 
0882.0900  0039.0000  0013.1000  0044.1000  0739.0000  6327.1970  0006.3272  5458.9711  0005.4590  0005.9881  0739.0000 
0882.1900  0039.7000  0013.6000  0043.4000  0733.0000  6335.1532  0006.3352  5674.7348  0005.6747  0006.0760  0733.0000 
0882.2900  0039.8000  0014.2000  0043.3000  0749.0000  6345.8018  0006.3458  5841.8350  0005.8418  0006.0916  0749.0000 
0882.3900  0039.3000  0015.3000  0043.8000  0749.0000  6361.3982  0006.3614  5857.6077  0005.8576  0006.0554  0749.0000 
0882.4900  0039.3000  0016.0000  0043.8000  0742.0000  6231.5268  0006.2315  5755.9791  0005.7560  0006.0467  0742.0000 
0882.5900  0039.7000  0016.6000  0043.4000  0728.0000  6153.8377  0006.1538  5727.8865  0005.7279  0005.9565  0728.0000 
0882.6900  0039.9000  0017.6500  0043.2000  0750.0000  6322.6655  0006.3227  5697.7798  0005.6978  0005.8779  0750.0000 
0882.7900  0038.9000  0018.5000  0044.4000  0750.0000  6422.0678  0006.4221  5593.6034  0005.5936  0005.9557  0750.0000 
0882.8900  0039.6000  0018.9000  0043.5000  0736.0000  6165.9792  0006.1660  5561.1535  0005.5612  0005.9787  0736.0000 
0882.9900  0039.0000  0019.4500  0044.2000  0730.0000  6051.9230  0006.0519  5346.4495  0005.3464  0005.7174  0730.0000 
0883.0900  0039.6000  0020.3600  0043.5400  0730.0000  6297.7844  0006.2978  5304.7399  0005.3047  0005.6773  0730.0000 
0883.1900  0039.4000  0021.0000  0043.8000  0737.0000  6371.7956  0006.3718  5258.6298  0005.2586  0005.8002  0737.0000 
0883.2900  0039.1000  0021.7000  0044.1000  0740.0000  6399.7262  0006.3997  5253.7301  0005.2537  0005.8995  0740.0000 
0883.3900  0039.1000  0022.5800  0044.1000  0764.0000  6157.8313  0006.1578  5431.2299  0005.4312  0005.9976  0764.0000 
0883.4900  0039.7000  0023.6400  0043.4000  0764.0000  6083.8340  0006.0838  5676.5995  0005.6766  0006.0164  0764.0000 
0883.5900  0039.4000  0024.6000  0043.9000  0733.0000  6217.7451  0006.2177  5702.3789  0005.7024  0005.8810  0733.0000 
0883.6900  0039.3000  0025.3000  0043.8000  0727.0000  6109.9324  0006.1099  5656.7243  0005.6567  0005.9360  0727.0000 
0883.7900  0039.5250  0026.0750  0043.7000  0727.0000  6360.2819  0006.3603  5617.7942  0005.6178  0005.9673  0727.0000 
0883.8900  0039.6000  0027.2800  0043.9000  0737.0000  6447.8485  0006.4478  5779.9428  0005.7799  0006.0682  0737.0000 
0883.9900  0039.3000  0028.8000  0044.0000  0740.0000  6527.4736  0006.5275  5798.4105  0005.7984  0006.1619  0740.0000 
0884.0900  0039.4000  0030.1000  0043.9000  0767.0000  6559.0059  0006.5590  5890.5813  0005.8906  0006.1806  0767.0000 
0884.1900  0039.4000  0031.4400  0043.9000  0767.0000  6578.3590  0006.5784  5907.3276  0005.9073  0006.3018  0767.0000 
0884.2900  0039.3400  0032.5600  0043.9600  0746.0000  6635.8134  0006.6358  6085.7718  0006.0858  0006.3340  0746.0000 
0884.3900  0039.6000  0034.2000  0043.8000  0738.0000  6689.9495  0006.6899  6118.9169  0006.1189  0006.2418  0738.0000 
