~Version Information Section
VERS.                         2.0                 : CWLS log ASCII Standard -VERSION 2.0
WRAP.                         NO                  : One line per depth step
~Well Information Section
STRT.m                        0.0900          : Start index
STOP.m                        1103.4900           : Stop index
STEP.m                        0.1                 : Index step
NULL.                         -999.25             : NULL VALUE
DATE.                         19.11.2013          : Date of recording
TIME.                         22.05               : Time of recording
COMP.                         Lukoil              : Customer company name
WELL.                         1057                : Well name
FLD.                          HAUZAK              : Field name
LOC.                          HAUZAK              : Well location
SRVC.                         PITC                : Logging company
BUSH.                                             : Bush
CTRY.                         Uzbekistan          : Country
STAT.                                             : State
CNTY.                                             : County
API.                                              : API number
PBR.                          1.24                : Plotnost'
VBR.                          50                  : Vyazkost'
VO.                           5.6                 : Vodootdacha
OPER.           Mihaylov I. A. +998907105999      : operator
~Curve Information Section
DEPT.m                                            : 
DEVI.deg                                          : Зенит(гр)
VIZIR.deg                                          : Визир(гр)
AZIM.deg                                          : Азимут(гр)
SPED.mph                                          : Скорость(м/ч)
GRC1.cpm                                       : ГК1(имп/мин)
GR1.ur/h                                         : ГК1(мкр/ч)
GRC2.cpm                                       : ГК2(имп/мин)
GR2.ur/h                                         : ГК2(мкр/ч)
GR.ur/h                                           : ГК(мкр/ч)
SPED.mph                                          : Скорость(м/ч)
~Other Information Section
#    File was produced by KarSar 500 (c) GeoFT    #
Имя записи                                        : Каскад [4].KAR
Дата конвертации                                  : 19.11.2013 23:14:51
Прибор                                            : Каскад
Режим                                             : Основной
Калибровка                                        : ГК-Т № 412 + ИФМ-К-76 № 568
~ASCII Log Data
# ...
0656.6900  0026.9000  0309.8000  0044.7000  0745.0000  6540.7248  0006.5407  6379.0770  0006.3791  0006.2847  0745.0000 
0656.7900  0027.4000  0309.7000  0044.2000  0774.0000  6778.9102  0006.7789  6360.6508  0006.3607  0006.5631  0774.0000 
0656.8900  0027.6000  0309.2750  0044.0000  0774.0000  6966.4907  0006.9665  6571.8833  0006.5719  0006.6607  0774.0000 
0656.9900  0027.3800  0308.8000  0044.3200  0739.0000  7017.6686  0007.0177  6584.6690  0006.5847  0006.7636  0739.0000 
0657.0900  0026.9000  0308.6000  0044.9000  0739.0000  6840.9056  0006.8409  6503.4882  0006.5035  0006.7980  0739.0000 
0657.1900  0028.0000  0308.5000  0043.7000  0755.0000  6810.2177  0006.8102  6676.0234  0006.6760  0006.7159  0755.0000 
0657.2900  0028.0000  0308.4000  0043.7000  0731.0000  6886.8880  0006.8869  6689.6089  0006.6896  0006.6792  0731.0000 
0657.3900  0027.3000  0308.4000  0044.4000  0731.0000  6571.5965  0006.5716  6475.3453  0006.4753  0006.6754  0731.0000 
0657.4900  0027.5000  0308.5000  0044.2000  0735.0000  6472.1389  0006.4721  6463.8408  0006.4638  0006.4478  0735.0000 
0657.5900  0027.6000  0308.8000  0044.1000  0760.0000  6620.1294  0006.6201  6333.2250  0006.3332  0006.3761  0760.0000 
0657.6900  0027.2000  0308.9000  0044.6000  0784.0000  6685.4095  0006.6854  6228.1354  0006.2281  0006.3635  0784.0000 
0657.7900  0027.2000  0308.9750  0044.2000  0784.0000  6637.7232  0006.6377  6077.7744  0006.0778  0006.4005  0784.0000 
0657.8900  0027.5000  0309.4000  0044.3000  0733.0000  6505.9159  0006.5059  6062.0704  0006.0621  0006.4103  0733.0000 
0657.9900  0027.6000  0309.7000  0044.2000  0764.0000  6399.5677  0006.3996  6127.7939  0006.1278  0006.3704  0764.0000 
0658.0900  0027.2000  0309.7000  0044.5000  0766.0000  6373.6068  0006.3736  6297.1315  0006.2971  0006.3647  0766.0000 
0658.1900  0027.2000  0310.2400  0044.5000  0748.0000  6586.0685  0006.5861  6341.2550  0006.3413  0006.3974  0748.0000 
0658.2900  0027.4600  0311.7000  0044.1800  0746.0000  6699.5169  0006.6995  6344.0715  0006.3441  0006.5211  0746.0000 
0658.3900  0027.5000  0312.9600  0044.0400  0753.0000  6729.5465  0006.7295  6455.6651  0006.4557  0006.5496  0753.0000 
0658.4900  0027.3000  0314.3000  0044.5000  0757.0000  6561.7759  0006.5618  6469.7069  0006.4697  0006.5185  0757.0000 
0658.5900  0027.3000  0314.3000  0044.5000  0764.0000  6545.4383  0006.5454  6358.4276  0006.3584  0006.4965  0764.0000 
0658.6900  0027.5000  0314.0000  0044.2000  0770.0000  6690.8755  0006.6909  6436.6484  0006.4366  0006.4150  0770.0000 
0658.7900  0027.7000  0314.1000  0044.0000  0747.0000  6777.4192  0006.7774  6265.8152  0006.2658  0006.5449  0747.0000 
0658.8900  0027.0000  0313.4000  0044.8000  0747.0000  6626.5035  0006.6265  6246.7525  0006.2468  0006.5822  0747.0000 
0658.9900  0027.0000  0313.1000  0044.1000  0761.0000  6557.4595  0006.5575  6410.8096  0006.4108  0006.4345  0761.0000 
0659.0900  0027.9000  0312.4000  0043.8000  0775.0000  6702.0149  0006.7020  6257.6902  0006.2577  0006.4037  0775.0000 
0659.1900  0027.1000  0312.0000  0044.8000  0775.0000  6609.2114  0006.6092  6169.2373  0006.1692  0006.4311  0775.0000 
0659.2900  0027.1000  0311.4750  0044.8000  0769.0000  6597.3416  0006.5973  6160.2676  0006.1603  0006.4014  0769.0000 
0659.3900  0027.0000  0311.2500  0044.6000  0769.0000  6445.3788  0006.4454  6257.5481  0006.2575  0006.4333  0769.0000 
0659.4900  0027.8000  0311.0000  0043.9000  0748.0000  6272.4189  0006.2724  6267.1893  0006.2672  0006.3299  0748.0000 
0659.5900  0027.8000  0310.8000  0043.9000  0771.0000  6226.0396  0006.2260  6233.8637  0006.2339  0006.2568  0771.0000 
0659.6900  0027.7000  0310.8000  0043.9000  0784.0000  6359.2716  0006.3593  6259.7127  0006.2597  0006.3315  0784.0000 
0659.7900  0027.2000  0310.9000  0044.5000  0784.0000  6561.5114  0006.5615  6338.8924  0006.3389  0006.3533  0784.0000 
0659.8900  0027.1000  0310.8000  0044.6000  0769.0000  6653.2521  0006.6533  6230.7964  0006.2308  0006.4078  0769.0000 
0659.9900  0027.1000  0311.1000  0044.3000  0766.0000  6534.2105  0006.5342  6217.8467  0006.2178  0006.4391  0766.0000 
0660.0900  0027.6000  0311.1000  0044.1000  0785.0000  6622.4374  0006.6224  6117.4592  0006.1175  0006.3199  0785.0000 
0660.1900  0027.7000  0310.8000  0044.0000  0758.0000  6539.9772  0006.5400  6255.3978  0006.2554  0006.4223  0758.0000 
0660.2900  0027.3000  0310.9200  0044.5000  0754.0000  6495.4874  0006.4955  6272.0513  0006.2721  0006.4132  0754.0000 
0660.3900  0027.3000  0311.1200  0044.5000  0742.0000  6391.9200  0006.3919  6314.7221  0006.3147  0006.4212  0742.0000 
0660.4900  0027.2750  0311.3250  0044.1000  0742.0000  6284.1375  0006.2841  6328.2280  0006.3282  0006.3032  0742.0000 
0660.5900  0027.2000  0311.5000  0044.1000  0757.0000  6430.5354  0006.4305  6223.4568  0006.2235  0006.2077  0757.0000 
0660.6900  0027.7000  0311.6000  0044.0000  0768.0000  6628.2707  0006.6283  6129.0420  0006.1290  0006.3413  0768.0000 
0660.7900  0027.7000  0311.8000  0043.9000  0768.0000  6753.0232  0006.7530  6241.7997  0006.2418  0006.5345  0768.0000 
0660.8900  0027.2000  0312.0000  0044.7000  0769.0000  6783.3508  0006.7834  6443.6967  0006.4437  0006.6309  0769.0000 
0660.9900  0027.6000  0312.2000  0044.1000  0774.0000  6832.5801  0006.8326  6502.8805  0006.5029  0006.6452  0774.0000 
0661.0900  0027.6000  0311.9000  0044.2000  0778.0000  6994.2827  0006.9943  6440.4892  0006.4405  0006.7198  0778.0000 
0661.1900  0027.8000  0312.1000  0044.1000  0769.0000  7195.5058  0007.1955  6601.9353  0006.6019  0006.8538  0769.0000 
0661.2900  0027.4000  0312.3200  0044.4000  0762.0000  7304.9691  0007.3050  6710.4042  0006.7104  0006.9752  0762.0000 
0661.3900  0027.7000  0312.6000  0044.2000  0757.0000  7321.9984  0007.3220  6733.1237  0006.7331  0007.1361  0757.0000 
0661.4900  0027.5000  0312.6000  0044.5000  0753.0000  7266.1987  0007.2662  6990.0357  0006.9900  0007.1939  0753.0000 
0661.5900  0027.5000  0312.5000  0044.5000  0753.0000  7209.6431  0007.2096  7072.9183  0007.0729  0007.2245  0753.0000 
0661.6900  0027.8000  0312.8000  0044.1000  0772.0000  7183.6859  0007.1837  7204.5036  0007.2045  0007.1712  0772.0000 
0661.7900  0027.8000  0313.3667  0044.1000  0783.0000  7377.1251  0007.3771  7218.4514  0007.2185  0007.1563  0783.0000 
0661.8900  0027.5000  0313.7500  0044.5000  0783.0000  7462.1769  0007.4622  7230.6547  0007.2307  0007.3323  0783.0000 
0661.9900  0027.3000  0314.0400  0044.6000  0774.0000  7234.4723  0007.2345  7261.1244  0007.2611  0007.3626  0774.0000 
0662.0900  0028.0000  0314.5000  0043.8000  0777.0000  7612.5037  0007.6125  7098.2557  0007.0983  0007.1572  0777.0000 
0662.1900  0028.0000  0315.1000  0043.8000  0777.0000  7691.2990  0007.6913  7079.9386  0007.0799  0007.3487  0777.0000 
0662.2900  0027.6000  0315.7750  0044.2750  0777.0000  7700.3705  0007.7004  6947.2509  0006.9473  0007.2936  0777.0000 
0662.3900  0027.4000  0316.2500  0044.5000  0761.0000  7689.1709  0007.6892  6917.0202  0006.9170  0007.2844  0761.0000 
0662.4900  0027.7000  0316.6000  0044.1000  0761.0000  7751.9408  0007.7519  6862.2734  0006.8623  0007.2577  0761.0000 
0662.5900  0027.5000  0316.7000  0044.5000  0779.0000  7780.2385  0007.7802  6824.0702  0006.8241  0007.4446  0779.0000 
0662.6900  0027.8000  0316.9000  0044.0000  0779.0000  7512.2464  0007.5122  7166.2987  0007.1663  0007.4925  0779.0000 
0662.7900  0027.5000  0317.0000  0044.4000  0773.0000  7452.6393  0007.4526  7204.6833  0007.2047  0007.2130  0773.0000 
0662.8900  0027.9000  0316.9000  0043.9750  0784.0000  7530.7015  0007.5307  6916.5067  0006.9165  0007.1760  0784.0000 
0662.9900  0027.9000  0316.9000  0043.9000  0790.0000  7447.4568  0007.4475  6899.3732  0006.8994  0007.2923  0790.0000 
0663.0900  0027.4400  0317.1600  0044.5600  0790.0000  7338.5040  0007.3385  7100.4922  0007.1005  0007.3176  0790.0000 
0663.1900  0027.4000  0317.2600  0044.6000  0805.0000  7300.2247  0007.3002  7203.9086  0007.2039  0007.1792  0805.0000 
0663.2900  0027.9000  0317.1000  0044.1000  0779.0000  7263.7122  0007.2637  7010.0484  0007.0100  0007.1438  0779.0000 
