~Version Information Section
VERS.                         2.0                 : CWLS log ASCII Standard -VERSION 2.0
WRAP.                         NO                  : One line per depth step
~Well Information Section
STRT.m                        0.0900          : Start index
STOP.m                        1103.4900           : Stop index
STEP.m                        0.1                 : Index step
NULL.                         -999.25             : NULL VALUE
DATE.                         19.11.2013          : Date of recording
TIME.                         22.05               : Time of recording
COMP.                         Lukoil              : Customer company name
WELL.                         1057                : Well name
FLD.                          HAUZAK              : Field name
LOC.                          HAUZAK              : Well location
SRVC.                         PITC                : Logging company
BUSH.                                             : Bush
CTRY.                         Uzbekistan          : Country
STAT.                                             : State
CNTY.                                             : County
API.                                              : API number
PBR.                          1.24                : Plotnost'
VBR.                          50                  : Vyazkost'
VO.                           5.6                 : Vodootdacha
OPER.           Mihaylov I. A. +998907105999      : operator
~Curve Information Section
DEPT.m                                            : 
DEVI.deg                                          : Зенит(гр)
VIZIR.deg                                          : Визир(гр)
AZIM.deg                                          : Азимут(гр)
SPED.mph                                          : Скорость(м/ч)
GRC1.cpm                                       : ГК1(имп/мин)
GR1.ur/h                                         : ГК1(мкр/ч)
GRC2.cpm                                       : ГК2(имп/мин)
GR2.ur/h                                         : ГК2(мкр/ч)
GR.ur/h                                           : ГК(мкр/ч)
SPED.mph                                          : Скорость(м/ч)
~Other Information Section
#    File was produced by KarSar 500 (c) GeoFT    #
Имя записи                                        : Каскад [4].KAR
Дата конвертации                                  : 19.11.2013 23:14:51
Прибор                                            : Каскад
Режим                                             : Основной
Калибровка                                        : ГК-Т № 412 + ИФМ-К-76 № 568
~ASCII Log Data
# ...
0582.9900  0022.9000  0320.5000  0043.6000  0784.0000  6950.6929  0006.9507  6969.9011  0006.9699  0006.8695  0784.0000 
0583.0900  0022.5000  0320.7000  0043.9000  0770.0000  7020.5004  0007.0205  6940.8381  0006.9408  0006.9031  0770.0000 
0583.1900  0022.7000  0320.8000  0043.8000  0795.0000  6914.6172  0006.9146  6816.4914  0006.8165  0006.8532  0795.0000 
0583.2900  0023.1000  0321.1600  0043.3000  0795.0000  6986.3016  0006.9863  6766.7187  0006.7667  0006.8388  0795.0000 
0583.3900  0023.1000  0321.7800  0043.6800  0782.0000  7125.0800  0007.1251  6881.8113  0006.8818  0006.9048  0782.0000 
0583.4900  0022.6000  0322.3000  0043.8000  0782.0000  7196.9030  0007.1969  6657.3851  0006.6574  0006.9505  0782.0000 
0583.5900  0023.1000  0323.0000  0043.2000  0769.0000  7275.0261  0007.2750  6630.9813  0006.6310  0007.0171  0769.0000 
0583.6900  0023.1000  0324.3000  0043.2000  0769.0000  7303.8212  0007.3038  6838.7384  0006.8387  0007.0700  0769.0000 
0583.7900  0022.5000  0324.3000  0043.9000  0782.0000  7358.8672  0007.3589  6856.8891  0006.8569  0007.0886  0782.0000 
0583.8900  0022.5000  0324.6000  0044.0000  0810.0000  7394.2295  0007.3942  6899.9779  0006.9000  0007.0905  0810.0000 
0583.9900  0023.1000  0324.7000  0043.4000  0810.0000  7228.6207  0007.2286  6796.5512  0006.7966  0006.9985  0810.0000 
0584.0900  0022.6000  0325.2000  0043.4000  0797.0000  7014.5470  0007.0145  6612.5605  0006.6126  0006.8722  0797.0000 
0584.1900  0022.5000  0325.2000  0044.3000  0770.0000  6761.2629  0006.7613  6526.8126  0006.5268  0006.7290  0770.0000 
0584.2900  0023.0200  0324.6000  0044.3000  0770.0000  6681.8430  0006.6818  6459.5438  0006.4595  0006.6601  0770.0000 
0584.3900  0023.1000  0325.2000  0043.5000  0781.0000  6619.5602  0006.6196  6601.9929  0006.6020  0006.6502  0781.0000 
0584.4900  0022.8000  0324.8000  0043.9000  0783.0000  6567.7267  0006.5677  6618.5597  0006.6186  0006.6182  0783.0000 
0584.5900  0023.0000  0324.7000  0043.9500  0776.0000  6606.4314  0006.6064  6633.1276  0006.6331  0006.6098  0776.0000 
0584.6900  0022.6000  0324.3800  0044.1000  0783.0000  6625.7358  0006.6257  6666.2647  0006.6663  0006.5988  0783.0000 
0584.7900  0023.0000  0324.0400  0043.7000  0795.0000  6579.2853  0006.5793  6574.0820  0006.5741  0006.5946  0795.0000 
0584.8900  0023.1000  0323.7000  0043.7000  0795.0000  6569.3963  0006.5694  6563.4793  0006.5635  0006.6226  0795.0000 
0584.9900  0023.1000  0323.7000  0043.6000  0798.0000  6536.2453  0006.5362  6642.8757  0006.6429  0006.6644  0798.0000 
0585.0900  0022.7000  0323.9000  0044.1000  0777.0000  6514.1209  0006.5141  6758.6404  0006.7586  0006.7221  0777.0000 
0585.1900  0023.0000  0324.0000  0043.7000  0777.0000  6663.6955  0006.6637  6933.1221  0006.9331  0006.7325  0777.0000 
0585.2900  0023.1000  0323.7200  0043.6000  0789.0000  6681.9234  0006.6819  6950.9521  0006.9510  0006.6828  0789.0000 
0585.3900  0022.8600  0323.2600  0043.9000  0799.0000  6543.0013  0006.5430  6692.3943  0006.6924  0006.6122  0799.0000 
0585.4900  0022.7400  0323.1400  0044.0600  0784.0000  6514.7860  0006.5148  6624.3665  0006.6244  0006.5942  0784.0000 
0585.5900  0023.1000  0322.8000  0044.1000  0767.0000  6618.9007  0006.6189  6736.5905  0006.7366  0006.6507  0767.0000 
0585.6900  0022.7000  0322.4000  0044.1000  0767.0000  6787.7523  0006.7878  6793.9289  0006.7939  0006.7720  0767.0000 
0585.7900  0022.7000  0322.1000  0044.1000  0781.0000  6865.9092  0006.8659  6923.1395  0006.9231  0006.8114  0781.0000 
0585.8900  0023.0000  0321.4800  0043.8000  0768.0000  6937.4591  0006.9375  6936.9517  0006.9370  0006.8138  0768.0000 
0585.9900  0023.1000  0321.3000  0043.7000  0768.0000  7011.3686  0007.0114  6730.4754  0006.7305  0006.9354  0768.0000 
0586.0900  0022.9000  0321.0000  0043.6000  0785.0000  7031.9640  0007.0320  6949.8870  0006.9499  0007.0385  0785.0000 
0586.1900  0022.7000  0320.5000  0044.3000  0785.0000  7143.5256  0007.1435  7069.2513  0007.0693  0006.9480  0785.0000 
0586.2900  0023.2500  0321.3000  0043.4000  0785.0000  7256.7356  0007.2567  6881.9406  0006.8819  0006.9210  0785.0000 
0586.3900  0023.3000  0320.6000  0043.6000  0785.0000  7354.3942  0007.3544  6842.3268  0006.8423  0007.0849  0785.0000 
0586.4900  0023.3000  0320.3000  0043.6000  0771.0000  7451.7674  0007.4518  6915.0915  0006.9151  0007.0995  0771.0000 
0586.5900  0022.8000  0320.3000  0044.1000  0770.0000  7479.0245  0007.4790  6765.1276  0006.7651  0007.0413  0770.0000 
0586.6900  0023.3000  0320.6000  0043.5000  0767.0000  7366.8567  0007.3669  6606.0310  0006.6060  0007.1257  0767.0000 
0586.7900  0023.4000  0321.0000  0043.3000  0771.0000  7278.7613  0007.2788  6819.4672  0006.8195  0007.1485  0771.0000 
0586.8900  0023.1000  0321.0000  0043.8000  0781.0000  7236.8171  0007.2368  6863.1227  0006.8631  0007.0977  0781.0000 
0586.9900  0022.9000  0320.3000  0044.1000  0790.0000  7053.5971  0007.0536  6998.7553  0006.9988  0007.0417  0790.0000 
0587.0900  0023.4000  0319.9000  0044.2000  0790.0000  6704.0564  0006.7041  6828.7878  0006.8288  0006.9092  0790.0000 
0587.1900  0023.4000  0319.5600  0043.6000  0785.0000  6440.3127  0006.4403  6787.3999  0006.7874  0006.7328  0785.0000 
0587.2900  0023.2000  0319.5000  0043.7000  0807.0000  6291.8432  0006.2918  6785.0829  0006.7851  0006.5800  0807.0000 
0587.3900  0023.3000  0319.3000  0043.7000  0807.0000  6255.0355  0006.2550  6732.5205  0006.7325  0006.4877  0807.0000 
0587.4900  0023.1000  0319.2000  0043.9000  0785.0000  6399.3171  0006.3993  6692.2882  0006.6923  0006.4273  0785.0000 
0587.5900  0023.1000  0319.0000  0043.9000  0768.0000  6445.3009  0006.4453  6526.3861  0006.5264  0006.4162  0768.0000 
0587.6900  0023.3000  0318.8000  0043.7000  0761.0000  6546.0143  0006.5460  6508.3503  0006.5084  0006.5070  0761.0000 
0587.7900  0023.4000  0318.5400  0043.7000  0772.0000  6393.4213  0006.3934  6567.6640  0006.5677  0006.5733  0772.0000 
0587.8900  0023.1000  0317.7400  0044.1000  0798.0000  6310.6039  0006.3106  6589.4079  0006.5894  0006.5892  0798.0000 
0587.9900  0023.3200  0317.3600  0043.7800  0799.0000  6540.2244  0006.5402  6651.9620  0006.6520  0006.4846  0799.0000 
0588.0900  0023.5000  0317.0600  0043.6000  0801.0000  6476.5558  0006.4766  6708.9504  0006.7090  0006.6274  0801.0000 
0588.1900  0023.2000  0316.5800  0043.6000  0808.0000  6436.6538  0006.4367  6627.8362  0006.6278  0006.5367  0808.0000 
0588.2900  0023.1400  0316.1800  0044.0600  0798.0000  6596.6057  0006.5966  6553.9934  0006.5540  0006.4471  0798.0000 
0588.3900  0023.4000  0315.8000  0043.8000  0820.0000  6689.1747  0006.6892  6459.9260  0006.4599  0006.4254  0820.0000 
0588.4900  0023.6000  0315.4000  0043.6000  0820.0000  6716.9062  0006.7169  6344.7542  0006.3448  0006.5089  0820.0000 
0588.5900  0023.6000  0315.1500  0043.9000  0779.0000  6615.6362  0006.6156  6326.6590  0006.3267  0006.5637  0779.0000 
0588.6900  0023.2000  0315.0000  0043.9000  0779.0000  6405.1709  0006.4052  6417.2166  0006.4172  0006.4882  0779.0000 
0588.7900  0023.2800  0314.6600  0044.0000  0768.0000  6335.4681  0006.3355  6427.3573  0006.4274  0006.3429  0768.0000 
0588.8900  0023.4000  0314.2400  0043.7000  0768.0000  6630.9476  0006.6309  6296.2587  0006.2963  0006.3121  0768.0000 
0588.9900  0023.2000  0314.2000  0043.9000  0779.0000  6768.9107  0006.7689  6288.7138  0006.2887  0006.5029  0779.0000 
0589.0900  0023.4000  0314.4000  0043.9000  0823.0000  6808.9234  0006.8089  6338.6356  0006.3386  0006.5582  0823.0000 
0589.1900  0023.1000  0313.8000  0044.1000  0823.0000  6931.7298  0006.9317  6345.4891  0006.3455  0006.6526  0823.0000 
0589.2900  0023.1000  0313.7000  0043.6600  0761.0000  6978.7452  0006.9787  6510.0214  0006.5100  0006.6751  0761.0000 
0589.3900  0023.4000  0313.7000  0043.6000  0761.0000  6788.0165  0006.7880  6528.1803  0006.5282  0006.5691  0761.0000 
0589.4900  0023.1800  0313.6000  0043.9200  0796.0000  6695.0688  0006.6951  6297.2528  0006.2973  0006.5021  0796.0000 
0589.5900  0023.1000  0313.4000  0044.1000  0768.0000  6658.2243  0006.6582  6208.8024  0006.2088  0006.4901  0768.0000 
