~Version Information Section
VERS.                         2.0                 : CWLS log ASCII Standard -VERSION 2.0
WRAP.                         NO                  : One line per depth step
~Well Information Section
STRT.m                        0.0900          : Start index
STOP.m                        1103.4900           : Stop index
STEP.m                        0.1                 : Index step
NULL.                         -999.25             : NULL VALUE
DATE.                         19.11.2013          : Date of recording
TIME.                         22.05               : Time of recording
COMP.                         Lukoil              : Customer company name
WELL.                         1057                : Well name
FLD.                          HAUZAK              : Field name
LOC.                          HAUZAK              : Well location
SRVC.                         PITC                : Logging company
BUSH.                                             : Bush
CTRY.                         Uzbekistan          : Country
STAT.                                             : State
CNTY.                                             : County
API.                                              : API number
PBR.                          1.24                : Plotnost'
VBR.                          50                  : Vyazkost'
VO.                           5.6                 : Vodootdacha
OPER.           Mihaylov I. A. +998907105999      : operator
~Curve Information Section
DEPT.m                                            : 
DEVI.deg                                          : Зенит(гр)
VIZIR.deg                                          : Визир(гр)
AZIM.deg                                          : Азимут(гр)
SPED.mph                                          : Скорость(м/ч)
GRC1.cpm                                       : ГК1(имп/мин)
GR1.ur/h                                         : ГК1(мкр/ч)
GRC2.cpm                                       : ГК2(имп/мин)
GR2.ur/h                                         : ГК2(мкр/ч)
GR.ur/h                                           : ГК(мкр/ч)
SPED.mph                                          : Скорость(м/ч)
~Other Information Section
#    File was produced by KarSar 500 (c) GeoFT    #
Имя записи                                        : Каскад [4].KAR
Дата конвертации                                  : 19.11.2013 23:14:51
Прибор                                            : Каскад
Режим                                             : Основной
Калибровка                                        : ГК-Т № 412 + ИФМ-К-76 № 568
~ASCII Log Data
# ...
0080.4900  0000.3000  0263.4000  0052.1000  0747.0000  8003.5682  0008.0036  7362.9536  0007.3630  0007.6661  0747.0000 
0080.5900  0000.3000  0265.6000  0050.2000  0747.0000  8115.3889  0008.1154  7362.9536  0007.3630  0007.8229  0747.0000 
0080.6900  0000.3000  0265.5000  0051.5000  0753.0000  8169.9347  0008.1699  7670.9448  0007.6709  0007.9441  0753.0000 
0080.7900  0000.3000  0266.5000  0049.8000  0766.0000  8181.1865  0008.1812  7786.5463  0007.7865  0007.9651  0766.0000 
0080.8900  0000.3000  0264.8000  0051.8000  0769.0000  7973.1225  0007.9731  7547.7676  0007.5478  0007.8343  0769.0000 
0080.9900  0000.3000  0264.8000  0051.8000  0774.0000  7884.4838  0007.8845  7473.4523  0007.4735  0007.7483  0774.0000 
0081.0900  0000.3000  0266.0000  0051.0000  0774.0000  8084.4706  0008.0845  7572.8910  0007.5729  0007.7287  0774.0000 
0081.1900  0000.3000  0266.8000  0052.0000  0774.0000  8136.6218  0008.1366  7572.8910  0007.5729  0007.6637  0774.0000 
0081.2900  0000.3000  0267.5000  0052.3000  0778.0000  7803.1973  0007.8032  7144.7359  0007.1447  0007.4941  0778.0000 
0081.3900  0000.3000  0266.1000  0052.1000  0778.0000  7613.9657  0007.6140  6955.2548  0006.9553  0007.3283  0778.0000 
0081.4900  0000.3000  0266.0000  0052.6000  0751.0000  7236.1361  0007.2361  6856.0115  0006.8560  0007.1650  0751.0000 
0081.5900  0000.3000  0268.4000  0050.5000  0751.0000  7037.2397  0007.0372  6702.7951  0006.7028  0006.9313  0751.0000 
0081.6900  0000.3000  0268.8000  0050.4000  0752.0000  6838.3911  0006.8384  6665.6065  0006.6656  0006.8347  0752.0000 
0081.7900  0000.3000  0268.8000  0051.9000  0759.0000  6764.0810  0006.7641  6634.4531  0006.6345  0006.7595  0759.0000 
0081.8900  0000.3000  0267.7000  0052.1000  0765.0000  6939.6212  0006.9396  6723.1093  0006.7231  0006.7436  0765.0000 
0081.9900  0000.3000  0268.9000  0051.6000  0775.0000  7066.5922  0007.0666  6730.7929  0006.7308  0006.8225  0775.0000 
0082.0900  0000.3000  0267.8000  0052.8000  0775.0000  7108.8474  0007.1088  6687.2398  0006.6872  0006.8776  0775.0000 
0082.1900  0000.3000  0269.3000  0051.8000  0763.0000  7245.9195  0007.2459  6671.4341  0006.6714  0006.8901  0763.0000 
0082.2900  0000.3000  0270.0000  0051.3000  0778.0000  7362.3497  0007.3623  6671.4341  0006.6714  0007.0146  0778.0000 
0082.3900  0000.3000  0268.9000  0052.5000  0778.0000  7324.8406  0007.3248  6770.3135  0006.7703  0007.0566  0778.0000 
0082.4900  0000.3000  0271.4000  0050.9000  0767.0000  7139.5716  0007.1396  6617.7599  0006.6178  0006.9942  0767.0000 
0082.5900  0000.3000  0269.1000  0053.7000  0767.0000  7013.3990  0007.0134  6806.8421  0006.8068  0007.0560  0767.0000 
0082.6900  0000.3000  0271.3000  0051.9000  0775.0000  6882.9707  0006.8830  6880.1198  0006.8801  0006.9744  0775.0000 
0082.7900  0000.3000  0271.3000  0051.9000  0780.0000  6730.8379  0006.7308  6975.8582  0006.9759  0006.9427  0780.0000 
0082.8900  0000.3000  0269.7000  0054.0000  0786.0000  6629.1296  0006.6291  7028.2624  0007.0283  0006.8598  0786.0000 
0082.9900  0000.3000  0272.5000  0051.8000  0788.0000  6590.8667  0006.5909  7028.2624  0007.0283  0006.7778  0788.0000 
0083.0900  0000.3000  0270.3000  0054.3000  0788.0000  6563.5501  0006.5636  6918.5213  0006.9185  0006.7077  0788.0000 
0083.1900  0000.3000  0271.6000  0053.0000  0799.0000  6655.4467  0006.6554  6803.5159  0006.8035  0006.6941  0799.0000 
0083.2900  0000.3000  0272.8250  0052.7250  0800.0000  6698.7296  0006.6987  6803.5159  0006.8035  0006.7124  0800.0000 
0083.3900  0000.3000  0273.1000  0052.5000  0796.0000  6588.6999  0006.5887  6682.1534  0006.6822  0006.6255  0796.0000 
0083.4900  0000.3000  0271.4000  0054.9000  0778.0000  6961.4033  0006.9614  6629.8357  0006.6298  0006.6093  0778.0000 
0083.5900  0000.3000  0273.4500  0053.7000  0778.0000  7038.1548  0007.0382  6564.6994  0006.5647  0006.7803  0778.0000 
0083.6900  0000.3000  0274.2000  0053.3000  0770.0000  6973.8799  0006.9739  6564.6994  0006.5647  0006.8070  0770.0000 
0083.7900  0000.3000  0275.0000  0053.1000  0770.0000  7150.3192  0007.1503  6556.8383  0006.5568  0006.7654  0770.0000 
0083.8900  0000.3000  0273.5000  0054.9000  0786.0000  7284.1821  0007.2842  6576.6478  0006.5766  0006.9349  0786.0000 
0083.9900  0000.3000  0274.9500  0054.2000  0800.0000  7327.4878  0007.3275  6741.5028  0006.7415  0007.0274  0800.0000 
0084.0900  0000.3000  0275.0000  0055.2000  0800.0000  7416.2342  0007.4162  6759.9448  0006.7599  0007.0437  0800.0000 
0084.1900  0000.3000  0276.0000  0053.7000  0792.0000  7523.5929  0007.5236  6764.6661  0006.7647  0007.1772  0792.0000 
0084.2900  0000.3000  0276.4000  0056.1000  0800.0000  7539.4492  0007.5394  6952.2304  0006.9522  0007.2395  0800.0000 
0084.3900  0000.3000  0277.4000  0053.7000  0800.0000  7503.0105  0007.5030  6952.2304  0006.9522  0007.2446  0800.0000 
0084.4900  0000.3000  0277.0000  0054.6000  0786.0000  7551.0959  0007.5511  6983.2164  0006.9832  0007.3047  0786.0000 
0084.5900  0000.3000  0277.3000  0055.6000  0785.0000  7572.2639  0007.5723  7137.7709  0007.1378  0007.3197  0785.0000 
0084.6900  0000.3000  0276.7000  0056.0000  0780.0000  7470.7158  0007.4707  7137.7709  0007.1378  0007.2098  0780.0000 
0084.7900  0000.3000  0277.8000  0056.3000  0780.0000  7374.2160  0007.3742  6909.4736  0006.9095  0007.1660  0780.0000 
0084.8900  0000.3000  0278.4500  0056.3000  0794.0000  7193.4141  0007.1934  6831.3177  0006.8313  0007.2231  0794.0000 
0084.9900  0000.3000  0279.6000  0054.4000  0801.0000  7136.9356  0007.1369  7152.5757  0007.1526  0007.0075  0801.0000 
0085.0900  0000.3000  0278.0000  0056.4500  0801.0000  7200.0125  0007.2000  6762.3393  0006.7623  0006.9496  0801.0000 
0085.1900  0000.3000  0278.2000  0056.5000  0801.0000  7095.9835  0007.0960  6762.3393  0006.7623  0007.0150  0801.0000 
0085.2900  0000.3000  0281.4000  0054.1000  0801.0000  7200.7779  0007.2008  6830.0274  0006.8300  0006.9304  0801.0000 
0085.3900  0000.3000  0279.4000  0056.5000  0797.0000  7378.7030  0007.3787  6937.7147  0006.9377  0007.1068  0797.0000 
0085.4900  0000.3000  0281.8000  0055.2000  0782.0000  7440.6584  0007.4407  7017.5924  0007.0176  0007.1584  0782.0000 
0085.5900  0000.3000  0281.8000  0055.2000  0779.0000  7415.6212  0007.4156  6892.3296  0006.8923  0007.0616  0779.0000 
0085.6900  0000.3000  0280.7000  0057.2000  0768.0000  7252.8467  0007.2528  6655.1960  0006.6552  0007.0354  0768.0000 
0085.7900  0000.3000  0282.8000  0055.9000  0767.0000  6855.6606  0006.8557  6655.1960  0006.6552  0006.9007  0767.0000 
0085.8900  0000.2000  0280.4000  0058.5000  0769.0000  6651.3583  0006.6514  6544.6056  0006.5446  0006.7741  0769.0000 
0085.9900  0000.2000  0280.8000  0058.7000  0775.0000  6621.7886  0006.6218  6785.8315  0006.7858  0006.7531  0775.0000 
0086.0900  0000.2000  0284.4000  0056.1000  0778.0000  6712.1161  0006.7121  6948.2840  0006.9483  0006.8464  0778.0000 
0086.1900  0000.2000  0284.4000  0058.2800  0771.0000  6676.6077  0006.6766  7011.4064  0007.0114  0006.8618  0771.0000 
0086.2900  0000.2000  0282.7000  0058.4000  0768.0000  6926.4934  0006.9265  6850.1059  0006.8501  0006.7634  0768.0000 
0086.3900  0000.2000  0284.9000  0056.8000  0775.0000  7014.7532  0007.0148  6850.1059  0006.8501  0007.0405  0775.0000 
0086.4900  0000.2000  0284.1000  0059.1000  0776.0000  7035.5255  0007.0355  7162.6632  0007.1627  0007.1069  0776.0000 
0086.5900  0000.2000  0282.7000  0059.6000  0766.0000  7233.4616  0007.2335  7251.6846  0007.2517  0007.2110  0766.0000 
0086.6900  0000.2000  0285.0000  0057.5000  0758.0000  7422.8179  0007.4228  7408.6296  0007.4086  0007.3482  0758.0000 
0086.7900  0000.2000  0285.8000  0057.1000  0750.0000  7521.3042  0007.5213  7446.1163  0007.4461  0007.4515  0750.0000 
0086.8900  0000.2000  0283.5000  0059.9000  0750.0000  7232.5108  0007.2325  7468.0220  0007.4680  0007.4739  0750.0000 
0086.9900  0000.2000  0284.7000  0060.0000  0752.0000  7099.8094  0007.0998  7407.3602  0007.4074  0007.1837  0752.0000 
0087.0900  0000.3000  0285.3000  0060.0000  0761.0000  7472.3529  0007.4724  7122.1772  0007.1222  0007.1110  0761.0000 
