~Version Information Section
VERS.                         2.0                 : CWLS log ASCII Standard -VERSION 2.0
WRAP.                         NO                  : One line per depth step
~Well Information Section
STRT.m                        0.0900          : Start index
STOP.m                        1103.4900           : Stop index
STEP.m                        0.1                 : Index step
NULL.                         -999.25             : NULL VALUE
DATE.                         19.11.2013          : Date of recording
TIME.                         22.05               : Time of recording
COMP.                         Lukoil              : Customer company name
WELL.                         1057                : Well name
FLD.                          HAUZAK              : Field name
LOC.                          HAUZAK              : Well location
SRVC.                         PITC                : Logging company
BUSH.                                             : Bush
CTRY.                         Uzbekistan          : Country
STAT.                                             : State
CNTY.                                             : County
API.                                              : API number
PBR.                          1.24                : Plotnost'
VBR.                          50                  : Vyazkost'
VO.                           5.6                 : Vodootdacha
OPER.           Mihaylov I. A. +998907105999      : operator
~Curve Information Section
DEPT.m                                            : 
DEVI.deg                                          : Зенит(гр)
VIZIR.deg                                          : Визир(гр)
AZIM.deg                                          : Азимут(гр)
SPED.mph                                          : Скорость(м/ч)
GRC1.cpm                                       : ГК1(имп/мин)
GR1.ur/h                                         : ГК1(мкр/ч)
GRC2.cpm                                       : ГК2(имп/мин)
GR2.ur/h                                         : ГК2(мкр/ч)
GR.ur/h                                           : ГК(мкр/ч)
SPED.mph                                          : Скорость(м/ч)
~Other Information Section
#    File was produced by KarSar 500 (c) GeoFT    #
Имя записи                                        : Каскад [4].KAR
Дата конвертации                                  : 19.11.2013 23:14:51
Прибор                                            : Каскад
Режим                                             : Основной
Калибровка                                        : ГК-Т № 412 + ИФМ-К-76 № 568
~ASCII Log Data
# ...
0368.5900  0013.7000  0273.5000  0043.6000  0749.5000  6726.5675  0006.7266  6792.5521  0006.7926  0006.8216  0749.5000 
0368.6900  0013.7000  0274.2000  0043.7000  0775.0000  6899.4628  0006.8995  6837.4884  0006.8375  0006.7841  0775.0000 
0368.7900  0013.8000  0275.1000  0043.5000  0788.0000  7016.2130  0007.0162  6879.2965  0006.8793  0006.8980  0788.0000 
0368.8900  0013.7000  0275.9000  0043.4000  0788.0000  7043.1486  0007.0431  6883.4871  0006.8835  0006.9543  0788.0000 
0368.9900  0013.7000  0277.0000  0043.2000  0776.0000  6950.8584  0006.9509  6877.3426  0006.8773  0006.8619  0776.0000 
0369.0900  0013.7000  0278.3600  0043.6000  0773.3000  7078.8223  0007.0788  6738.1793  0006.7382  0006.8364  0773.3000 
0369.1900  0013.7000  0279.0000  0043.7000  0789.0000  6914.4304  0006.9144  6721.8861  0006.7219  0006.9776  0789.0000 
0369.2900  0013.8000  0279.6000  0043.4000  0789.0000  7077.2678  0007.0773  6876.3762  0006.8764  0006.8517  0789.0000 
0369.3900  0013.7333  0280.8000  0043.2000  0775.0000  7174.6092  0007.1746  7094.7792  0007.0948  0007.1757  0775.0000 
0369.4900  0013.6000  0281.7000  0043.7000  0765.0000  7094.7421  0007.0947  7267.4508  0007.2675  0007.2131  0765.0000 
0369.5900  0013.8000  0282.8000  0043.3000  0755.1000  7054.7760  0007.0548  7282.8601  0007.2829  0007.1441  0755.1000 
0369.6900  0013.8533  0283.4267  0043.2867  0754.0000  7298.3231  0007.2983  7202.9537  0007.2030  0007.1270  0754.0000 
0369.7900  0013.9000  0284.4000  0043.1000  0761.0000  7469.4406  0007.4694  7261.6285  0007.2616  0007.2397  0761.0000 
0369.8900  0013.8000  0285.8000  0043.3000  0749.0000  7715.8108  0007.7158  7152.7578  0007.1528  0007.2602  0749.0000 
0369.9900  0013.9000  0287.3000  0043.4000  0746.0000  7824.2321  0007.8242  7019.7575  0007.0198  0007.3744  0746.0000 
0370.0900  0013.8000  0288.8000  0043.4000  0755.9000  7934.5985  0007.9346  7005.2309  0007.0052  0007.5117  0755.9000 
0370.1900  0013.9000  0290.3000  0043.2000  0765.0000  8045.6626  0008.0457  7219.3284  0007.2193  0007.5890  0765.0000 
0370.2900  0013.8000  0291.5500  0043.4000  0766.0000  8117.3134  0008.1173  7243.1316  0007.2431  0007.6014  0766.0000 
0370.3900  0013.9000  0293.2600  0043.1200  0755.0000  7889.1780  0007.8892  7020.5594  0007.0206  0007.5364  0755.0000 
0370.4900  0013.9000  0295.5000  0043.0000  0743.0000  7783.6371  0007.7836  6990.0972  0006.9901  0007.3604  0743.0000 
0370.5900  0013.8000  0297.1000  0043.4000  0725.0000  7536.1349  0007.5361  6851.4320  0006.8514  0007.3099  0725.0000 
0370.6900  0014.0000  0298.6500  0043.0500  0723.0000  7381.3151  0007.3813  6836.1195  0006.8361  0007.2206  0723.0000 
0370.7900  0014.0000  0299.9600  0043.0000  0778.0000  7175.1450  0007.1751  6952.4253  0006.9524  0007.1292  0778.0000 
0370.8900  0013.8000  0300.6667  0043.4000  0786.0000  6998.1123  0006.9981  6871.6841  0006.8717  0007.0775  0786.0000 
0370.9900  0013.8400  0301.5800  0043.3000  0786.0000  6957.7866  0006.9578  7025.6675  0007.0257  0006.9680  0786.0000 
0371.0900  0013.8000  0302.8000  0043.2000  0780.1000  7144.8530  0007.1449  7043.8431  0007.0438  0006.9429  0780.1000 
0371.1900  0013.9000  0303.9000  0043.1000  0792.0000  7098.0302  0007.0980  6799.4089  0006.7994  0006.8932  0792.0000 
0371.2900  0013.8000  0305.0000  0043.3000  0778.0000  7091.8934  0007.0919  6652.9230  0006.6529  0006.8753  0778.0000 
0371.3900  0013.9000  0305.9800  0043.3000  0770.0000  7025.5898  0007.0256  6638.2353  0006.6382  0006.9338  0770.0000 
0371.4900  0013.9000  0306.7000  0043.2000  0769.0000  6992.5092  0006.9925  6775.7965  0006.7758  0006.7847  0769.0000 
0371.5900  0013.8250  0307.3000  0043.3000  0768.1000  7106.7855  0007.1068  6533.5009  0006.5335  0006.7523  0768.1000 
0371.6900  0013.8000  0307.7000  0043.4000  0774.0000  7116.4476  0007.1164  6512.1306  0006.5121  0006.9342  0774.0000 
0371.7900  0014.0000  0308.1000  0042.9000  0778.0000  7002.1308  0007.0021  6760.7107  0006.7607  0006.8934  0778.0000 
0371.8900  0014.0000  0308.1000  0042.9000  0792.0000  6952.1317  0006.9521  6677.8777  0006.6779  0006.8286  0792.0000 
0371.9900  0013.9000  0307.9000  0043.4000  0792.0000  6885.8490  0006.8858  6668.3497  0006.6683  0006.8153  0792.0000 
0372.0900  0013.9000  0307.8600  0043.4400  0783.0000  6806.7626  0006.8068  6791.8789  0006.7919  0006.8767  0783.0000 
0372.1900  0013.9600  0307.4400  0043.5000  0781.0000  6784.2486  0006.7842  6805.6052  0006.8056  0006.8136  0781.0000 
0372.2900  0014.0000  0306.7000  0043.5000  0781.0000  6695.8772  0006.6959  6833.9328  0006.8339  0006.6640  0781.0000 
0372.3900  0013.9200  0306.0600  0043.5800  0779.0000  6644.1596  0006.6442  6495.3162  0006.4953  0006.6269  0779.0000 
0372.4900  0013.9000  0305.3000  0043.6000  0762.0000  6519.2381  0006.5192  6457.0181  0006.4570  0006.6479  0762.0000 
0372.5900  0014.0000  0304.3000  0043.7000  0756.6000  6467.2542  0006.4673  6659.1427  0006.6591  0006.5350  0756.6000 
0372.6900  0013.9000  0303.6400  0043.5000  0770.0000  6544.7975  0006.5448  6555.9744  0006.5560  0006.4700  0770.0000 
0372.7900  0014.0000  0302.8400  0043.5000  0770.0000  6366.1276  0006.3661  6393.9907  0006.3940  0006.4103  0770.0000 
0372.8900  0014.0000  0302.3200  0043.3400  0787.0000  6331.7264  0006.3317  6351.6072  0006.3516  0006.2835  0787.0000 
0372.9900  0013.9000  0301.1000  0044.0000  0788.0000  6406.1132  0006.4061  6195.2216  0006.1952  0006.1763  0788.0000 
0373.0900  0014.1000  0300.1000  0043.4000  0779.0000  6635.8610  0006.6359  5958.3398  0005.9583  0006.1450  0779.0000 
0373.1900  0014.1000  0298.9000  0043.8000  0791.0000  6729.4130  0006.7294  5873.2782  0005.8733  0006.2658  0791.0000 
0373.2900  0013.9000  0298.9000  0043.3000  0794.0000  6478.8590  0006.4789  5864.3514  0005.8644  0006.2968  0794.0000 
0373.3900  0014.1750  0299.4000  0043.3000  0775.0000  6556.5147  0006.5565  5955.4025  0005.9554  0006.2127  0775.0000 
0373.4900  0014.2000  0298.4000  0043.3000  0775.0000  6649.2808  0006.6493  5965.5464  0005.9655  0006.1947  0775.0000 
0373.5900  0014.1000  0297.7000  0043.6000  0770.8000  6837.8073  0006.8378  5816.9030  0005.8169  0006.1771  0770.8000 
0373.6900  0014.0000  0296.8000  0043.6000  0762.0000  6904.8798  0006.9049  5680.0951  0005.6801  0006.2256  0762.0000 
0373.7900  0014.0000  0296.2000  0043.5000  0761.0000  6692.6022  0006.6926  5581.6585  0005.5817  0006.3111  0761.0000 
0373.8900  0014.0500  0295.5000  0043.5000  0753.0000  6622.4965  0006.6225  5779.3595  0005.7794  0006.3293  0753.0000 
0373.9900  0014.2000  0294.5000  0042.9000  0749.0000  6857.1303  0006.8571  5973.9418  0005.9739  0006.3536  0749.0000 
0374.0900  0013.9000  0294.0000  0044.0000  0738.2000  6974.6220  0006.9746  6026.5362  0006.0265  0006.4118  0738.2000 
0374.1900  0014.1000  0293.7000  0043.5000  0737.0000  6996.0806  0006.9961  5933.2927  0005.9333  0006.4854  0737.0000 
0374.2900  0014.0000  0293.0000  0043.7000  0748.0000  6866.2217  0006.8662  5922.5184  0005.9225  0006.5008  0748.0000 
0374.3900  0014.1000  0292.5000  0043.5000  0735.0000  6810.1692  0006.8102  6080.9899  0006.0810  0006.4384  0735.0000 
0374.4900  0014.2000  0292.4000  0043.3000  0727.0000  6783.2347  0006.7832  5994.5228  0005.9945  0006.4991  0727.0000 
0374.5900  0013.9200  0292.2000  0043.3000  0717.1000  6683.8891  0006.6839  6223.5696  0006.2236  0006.5167  0717.1000 
0374.6900  0013.9000  0292.6000  0043.3000  0716.0000  6636.3077  0006.6363  6250.1902  0006.2502  0006.5240  0716.0000 
0374.7900  0014.2000  0292.8000  0043.3000  0722.0000  6834.6681  0006.8347  6399.8678  0006.3999  0006.5966  0722.0000 
0374.8900  0014.4000  0293.4500  0043.0000  0728.0000  6643.3368  0006.6433  6419.8080  0006.4198  0006.6138  0728.0000 
0374.9900  0013.9000  0293.8000  0043.5000  0728.0000  6561.6954  0006.5617  6392.8654  0006.3929  0006.5252  0728.0000 
0375.0900  0014.2000  0293.3200  0043.7000  0728.0000  6511.7824  0006.5118  6457.5728  0006.4576  0006.4754  0728.0000 
0375.1900  0014.4000  0293.2000  0043.0000  0721.0000  6715.3061  0006.7153  6398.6500  0006.3986  0006.4108  0721.0000 
