~Version Information Section
VERS.                         2.0                 : CWLS log ASCII Standard -VERSION 2.0
WRAP.                         NO                  : One line per depth step
~Well Information Section
STRT.m                        0.0900          : Start index
STOP.m                        1103.4900           : Stop index
STEP.m                        0.1                 : Index step
NULL.                         -999.25             : NULL VALUE
DATE.                         19.11.2013          : Date of recording
TIME.                         22.05               : Time of recording
COMP.                         Lukoil              : Customer company name
WELL.                         1057                : Well name
FLD.                          HAUZAK              : Field name
LOC.                          HAUZAK              : Well location
SRVC.                         PITC                : Logging company
BUSH.                                             : Bush
CTRY.                         Uzbekistan          : Country
STAT.                                             : State
CNTY.                                             : County
API.                                              : API number
PBR.                          1.24                : Plotnost'
VBR.                          50                  : Vyazkost'
VO.                           5.6                 : Vodootdacha
OPER.           Mihaylov I. A. +998907105999      : operator
~Curve Information Section
DEPT.m                                            : 
DEVI.deg                                          : Зенит(гр)
VIZIR.deg                                          : Визир(гр)
AZIM.deg                                          : Азимут(гр)
SPED.mph                                          : Скорость(м/ч)
GRC1.cpm                                       : ГК1(имп/мин)
GR1.ur/h                                         : ГК1(мкр/ч)
GRC2.cpm                                       : ГК2(имп/мин)
GR2.ur/h                                         : ГК2(мкр/ч)
GR.ur/h                                           : ГК(мкр/ч)
SPED.mph                                          : Скорость(м/ч)
~Other Information Section
#    File was produced by KarSar 500 (c) GeoFT    #
Имя записи                                        : Каскад [4].KAR
Дата конвертации                                  : 19.11.2013 23:14:51
Прибор                                            : Каскад
Режим                                             : Основной
Калибровка                                        : ГК-Т № 412 + ИФМ-К-76 № 568
~ASCII Log Data
# ...
0515.9900  0020.0000  0327.1000  0044.0000  0741.0000  7219.0369  0007.2190  6893.3068  0006.8933  0007.1148  0741.0000 
0516.0900  0020.0000  0328.5000  0044.1000  0757.0000  7063.7040  0007.0637  6989.3288  0006.9893  0007.1500  0757.0000 
0516.1900  0020.5600  0331.3000  0043.1400  0770.0000  6952.5875  0006.9526  7092.3230  0007.0923  0007.0982  0770.0000 
0516.2900  0020.0000  0333.1000  0044.3000  0770.0000  6748.6075  0006.7486  7160.8265  0007.1608  0007.0653  0770.0000 
0516.3900  0020.0000  0334.4000  0044.3000  0754.0000  6544.2483  0006.5442  7186.7120  0007.1867  0006.9364  0754.0000 
0516.4900  0020.4000  0335.5000  0043.8000  0754.0000  6490.5112  0006.4905  7145.6188  0007.1456  0006.8049  0754.0000 
0516.5900  0020.1600  0336.7600  0044.0400  0766.0000  6787.9712  0006.7880  7076.3425  0007.0763  0006.7798  0766.0000 
0516.6900  0020.5000  0337.8000  0043.7000  0750.0000  6893.3727  0006.8934  7069.1790  0007.0692  0006.9186  0750.0000 
0516.7900  0020.7000  0338.7750  0043.5000  0739.0000  6949.4131  0006.9494  6924.8566  0006.9249  0006.8613  0739.0000 
0516.8900  0020.1500  0339.5000  0044.2000  0737.0000  6901.1245  0006.9011  6868.5864  0006.8686  0006.9359  0737.0000 
0516.9900  0019.8000  0339.7000  0044.7000  0728.0000  6875.9352  0006.8759  6925.6456  0006.9256  0006.8601  0728.0000 
0517.0900  0020.5000  0339.8000  0044.0000  0738.0000  7085.5031  0007.0855  6814.3785  0006.8144  0006.8386  0738.0000 
0517.1900  0020.5000  0339.3000  0043.9000  0742.0000  7156.2174  0007.1562  6772.3919  0006.7724  0006.9636  0742.0000 
0517.2900  0020.2000  0340.7600  0043.8000  0749.0000  7174.1084  0007.1741  6836.3085  0006.8363  0006.9838  0749.0000 
0517.3900  0020.2000  0343.4600  0043.5400  0740.0000  7175.8388  0007.1758  6843.7668  0006.8438  0006.9019  0740.0000 
0517.4900  0020.2000  0347.1000  0043.5000  0760.0000  7307.5810  0007.3076  6610.3204  0006.6103  0006.8837  0760.0000 
0517.5900  0020.5000  0348.6000  0043.6000  0760.0000  7368.4703  0007.3685  6591.5719  0006.5916  0007.0846  0760.0000 
0517.6900  0020.0000  0349.8000  0044.2500  0751.0000  7136.7302  0007.1367  6860.2250  0006.8602  0007.1238  0751.0000 
0517.7900  0020.4500  0349.8000  0044.4000  0745.0000  7100.2333  0007.1002  6926.1972  0006.9262  0007.0582  0745.0000 
0517.8900  0020.6000  0348.3000  0043.9000  0736.0000  7294.7505  0007.2948  6999.4795  0006.9995  0007.1859  0736.0000 
0517.9900  0020.1000  0349.8000  0044.3000  0724.0000  7309.3659  0007.3094  7160.1610  0007.1602  0007.2818  0724.0000 
0518.0900  0020.1000  0350.6000  0044.3000  0724.0000  7087.1541  0007.0872  7274.8472  0007.2748  0007.1424  0724.0000 
0518.1900  0020.5000  0351.7400  0043.8000  0757.0000  7026.0832  0007.0261  7008.4449  0007.0084  0006.9794  0757.0000 
0518.2900  0020.3000  0352.1000  0044.4000  0765.0000  7206.1387  0007.2061  6881.3591  0006.8814  0006.8951  0765.0000 
0518.3900  0020.2000  0351.6000  0044.4000  0765.0000  7264.2859  0007.2643  6710.7545  0006.7108  0006.9928  0765.0000 
0518.4900  0020.6000  0351.6000  0044.0000  0747.0000  7337.1416  0007.3371  6692.9870  0006.6930  0007.0206  0747.0000 
0518.5900  0020.2000  0351.3000  0044.4000  0747.0000  7510.1704  0007.5102  6802.5555  0006.8026  0007.1062  0747.0000 
0518.6900  0020.4000  0351.2000  0044.2000  0758.0000  7577.6544  0007.5777  6865.4503  0006.8655  0007.2035  0758.0000 
0518.7900  0020.3000  0351.4000  0044.3000  0758.0000  7649.9435  0007.6499  6880.1216  0006.8801  0007.2221  0758.0000 
0518.8900  0020.2800  0351.5000  0044.3400  0747.0000  7678.2808  0007.6783  6827.2720  0006.8273  0007.2026  0747.0000 
0518.9900  0020.4800  0351.7000  0044.5000  0743.0000  7569.2279  0007.5692  6771.9299  0006.7719  0007.2413  0743.0000 
0519.0900  0020.6000  0351.9000  0044.0000  0727.0000  7416.7060  0007.4167  6856.9680  0006.8570  0007.3268  0727.0000 
0519.1900  0020.3000  0351.3000  0044.5000  0743.0000  7361.5822  0007.3616  7120.4614  0007.1205  0007.1933  0743.0000 
0519.2900  0020.2000  0351.0000  0044.6000  0755.0000  7488.1045  0007.4881  7148.6209  0007.1486  0007.1549  0755.0000 
0519.3900  0020.5000  0350.3800  0044.3000  0755.0000  7299.5676  0007.2996  6864.4565  0006.8645  0007.0725  0755.0000 
0519.4900  0020.2000  0349.7800  0044.5000  0759.0000  7418.6539  0007.4187  6801.8313  0006.8018  0007.0477  0759.0000 
0519.5900  0020.4000  0349.3000  0044.3000  0816.0000  7512.5799  0007.5126  6795.9072  0006.7959  0007.1118  0816.0000 
0519.6900  0020.4769  0349.2231  0044.2231  0816.0000  7561.2142  0007.5612  6788.3982  0006.7884  0007.2083  0816.0000 
0519.7900  0020.2500  0349.1000  0044.4500  0762.0000  7572.5582  0007.5726  6910.4145  0006.9104  0007.2838  0762.0000 
0519.8900  0020.1000  0349.3000  0044.6000  0742.0000  7510.9167  0007.5109  7012.5023  0007.0125  0007.2974  0742.0000 
0519.9900  0020.5000  0349.3000  0044.1000  0740.0000  7489.7748  0007.4898  7022.3085  0007.0223  0007.2096  0740.0000 
0520.0900  0020.3000  0349.2000  0044.4000  0740.0000  7644.2622  0007.6443  6906.4803  0006.9065  0007.1746  0740.0000 
0520.1900  0020.2000  0349.3000  0044.1000  0762.0000  7741.6593  0007.7417  6784.9095  0006.7849  0007.2235  0762.0000 
0520.2900  0020.5000  0349.1000  0044.1000  0762.0000  7784.0061  0007.7840  6772.3884  0006.7724  0007.2370  0762.0000 
0520.3900  0020.2000  0349.0667  0044.4000  0749.0000  7667.9891  0007.6680  6709.6416  0006.7096  0007.2067  0749.0000 
0520.4900  0020.5000  0348.9000  0044.1000  0758.0000  7471.7004  0007.4717  6618.0962  0006.6181  0007.0924  0758.0000 
0520.5900  0020.2500  0349.3000  0044.0000  0787.0000  7410.0468  0007.4100  6525.0204  0006.5250  0006.9586  0787.0000 
0520.6900  0020.2000  0349.3000  0044.0000  0756.0000  7618.4877  0007.6185  6459.7369  0006.4597  0006.9318  0756.0000 
0520.7900  0020.5000  0349.3000  0044.0000  0756.0000  7482.5945  0007.4826  6540.9213  0006.5409  0007.0846  0756.0000 
0520.8900  0020.7000  0348.7800  0044.4600  0730.0000  7552.2201  0007.5522  6550.6326  0006.5506  0007.0160  0730.0000 
0520.9900  0020.1000  0348.6000  0044.7000  0717.0000  7299.1596  0007.2992  6591.0300  0006.5910  0007.0739  0717.0000 
0521.0900  0020.6000  0348.2333  0044.0000  0712.0000  7224.3940  0007.2244  6661.1631  0006.6612  0007.0799  0712.0000 
0521.1900  0020.3000  0348.0000  0044.3000  0758.0000  7331.9949  0007.3320  6910.0688  0006.9101  0007.0207  0758.0000 
0521.2900  0020.5250  0347.8500  0044.0750  0758.0000  7379.3845  0007.3794  6936.9161  0006.9369  0007.1406  0758.0000 
0521.3900  0020.6000  0347.5500  0044.0000  0723.0000  7012.7193  0007.0127  6788.2786  0006.7883  0007.1745  0723.0000 
0521.4900  0020.3000  0347.2000  0044.4000  0748.0000  6833.0836  0006.8331  6969.6583  0006.9697  0006.9020  0748.0000 
0521.5900  0020.3000  0347.5000  0044.0000  0792.0000  6785.3782  0006.7854  6812.1177  0006.8121  0006.7915  0792.0000 
0521.6900  0020.3750  0347.3000  0044.3000  0747.0000  6962.2336  0006.9622  6759.8287  0006.7598  0006.7696  0747.0000 
0521.7900  0020.3000  0348.1400  0044.0200  0747.0000  6830.2807  0006.8303  6689.9950  0006.6900  0006.8166  0747.0000 
0521.8900  0020.6000  0349.6600  0043.9000  0752.0000  6748.6596  0006.7487  6661.8582  0006.6619  0006.7374  0752.0000 
0521.9900  0020.6000  0352.2000  0043.7000  0748.0000  6833.8316  0006.8338  6659.5191  0006.6595  0006.6829  0748.0000 
0522.0900  0020.4000  0354.1000  0044.0000  0756.0000  6873.3520  0006.8734  6613.5098  0006.6135  0006.7336  0756.0000 
0522.1900  0020.2600  0355.9600  0044.3400  0756.0000  6743.3431  0006.7433  6607.4590  0006.6075  0006.8302  0756.0000 
0522.2900  0020.2000  0356.4800  0044.4000  0758.0000  6687.9168  0006.6879  6808.0313  0006.8080  0006.8506  0758.0000 
0522.3900  0020.7000  0357.7000  0043.9000  0774.0000  6868.0656  0006.8681  6848.6811  0006.8487  0006.7694  0774.0000 
0522.4900  0020.5000  0357.9000  0044.2000  0774.0000  6634.6881  0006.6347  6906.2730  0006.9063  0006.7330  0774.0000 
0522.5900  0020.5000  0358.4000  0044.2000  0747.0000  6655.7867  0006.6558  6768.7056  0006.7687  0006.6596  0747.0000 
