~Version Information Section
VERS.                         2.0                 : CWLS log ASCII Standard -VERSION 2.0
WRAP.                         NO                  : One line per depth step
~Well Information Section
STRT.m                        0.0900          : Start index
STOP.m                        1103.4900           : Stop index
STEP.m                        0.1                 : Index step
NULL.                         -999.25             : NULL VALUE
DATE.                         19.11.2013          : Date of recording
TIME.                         22.05               : Time of recording
COMP.                         Lukoil              : Customer company name
WELL.                         1057                : Well name
FLD.                          HAUZAK              : Field name
LOC.                          HAUZAK              : Well location
SRVC.                         PITC                : Logging company
BUSH.                                             : Bush
CTRY.                         Uzbekistan          : Country
STAT.                                             : State
CNTY.                                             : County
API.                                              : API number
PBR.                          1.24                : Plotnost'
VBR.                          50                  : Vyazkost'
VO.                           5.6                 : Vodootdacha
OPER.           Mihaylov I. A. +998907105999      : operator
~Curve Information Section
DEPT.m                                            : 
DEVI.deg                                          : Зенит(гр)
VIZIR.deg                                          : Визир(гр)
AZIM.deg                                          : Азимут(гр)
SPED.mph                                          : Скорость(м/ч)
GRC1.cpm                                       : ГК1(имп/мин)
GR1.ur/h                                         : ГК1(мкр/ч)
GRC2.cpm                                       : ГК2(имп/мин)
GR2.ur/h                                         : ГК2(мкр/ч)
GR.ur/h                                           : ГК(мкр/ч)
SPED.mph                                          : Скорость(м/ч)
~Other Information Section
#    File was produced by KarSar 500 (c) GeoFT    #
Имя записи                                        : Каскад [4].KAR
Дата конвертации                                  : 19.11.2013 23:14:51
Прибор                                            : Каскад
Режим                                             : Основной
Калибровка                                        : ГК-Т № 412 + ИФМ-К-76 № 568
~ASCII Log Data
# ...
0730.3900  0031.6000  0321.0800  0045.4000  0732.0000  7138.2605  0007.1383  7125.9543  0007.1260  0006.9076  0732.0000 
0730.4900  0031.9200  0320.3200  0044.9200  0728.0000  7073.9196  0007.0739  6667.8232  0006.6678  0006.8560  0728.0000 
0730.5900  0032.2000  0319.6000  0044.7000  0784.0000  7091.5261  0007.0915  6619.1241  0006.6191  0006.8105  0784.0000 
0730.6900  0031.5000  0318.7000  0045.5000  0784.0000  7248.6636  0007.2487  6539.2305  0006.5392  0006.8856  0784.0000 
0730.7900  0031.5000  0318.1000  0045.5000  0762.0000  7312.2363  0007.3122  6695.0861  0006.6951  0006.9520  0762.0000 
0730.8900  0032.2000  0317.5400  0044.6000  0762.0000  7068.5699  0007.0686  6713.3812  0006.7134  0006.8326  0762.0000 
0730.9900  0031.7000  0316.8500  0045.2000  0772.0000  7298.0890  0007.2981  6539.6827  0006.5397  0006.8000  0772.0000 
0731.0900  0032.1000  0315.9800  0044.7000  0767.0000  7092.8083  0007.0928  6501.8776  0006.5019  0006.8983  0767.0000 
0731.1900  0031.6000  0314.5000  0045.3000  0766.0000  7025.9435  0007.0259  6498.5973  0006.4986  0006.8122  0766.0000 
0731.2900  0032.1000  0313.4200  0044.8000  0772.0000  7142.2212  0007.1422  6558.1605  0006.5582  0006.9155  0772.0000 
0731.3900  0031.7000  0312.8000  0045.2000  0776.0000  6990.4181  0006.9904  6730.7900  0006.7308  0006.9459  0776.0000 
0731.4900  0032.2000  0311.8800  0044.6000  0742.0000  7131.4790  0007.1315  6749.4993  0006.7495  0006.8421  0742.0000 
0731.5900  0031.7500  0311.1500  0045.0500  0741.0000  7240.2940  0007.2403  6797.5845  0006.7976  0006.9760  0741.0000 
0731.6900  0031.7000  0310.2000  0045.2000  0727.0000  7371.5554  0007.3716  6812.6326  0006.8126  0007.0072  0727.0000 
0731.7900  0032.0000  0309.7000  0044.7000  0787.0000  7419.9948  0007.4200  6764.7539  0006.7648  0007.0263  0787.0000 
0731.8900  0032.2000  0309.1200  0044.6000  0787.0000  7076.8313  0007.0768  6652.8506  0006.6529  0006.9569  0787.0000 
0731.9900  0031.6500  0308.3000  0045.2000  0758.0000  7029.4790  0007.0295  6640.7881  0006.6408  0006.9385  0758.0000 
0732.0900  0031.6000  0307.4000  0045.3000  0758.0000  7263.9700  0007.2640  6929.0743  0006.9291  0007.1113  0758.0000 
0732.1900  0032.0000  0306.9200  0044.8000  0748.0000  7280.5645  0007.2806  7046.5973  0007.0466  0007.1418  0748.0000 
0732.2900  0032.1000  0306.4000  0044.7000  0748.0000  7240.1317  0007.2401  7056.6992  0007.0567  0007.1051  0748.0000 
0732.3900  0032.1000  0305.8000  0044.6000  0773.0000  7304.4026  0007.3044  6956.7808  0006.9568  0007.0861  0773.0000 
0732.4900  0031.7000  0304.7000  0045.1000  0773.0000  7330.6426  0007.3306  6890.3847  0006.8904  0007.1667  0773.0000 
0732.5900  0032.2000  0302.6000  0044.6000  0777.0000  7129.4482  0007.1294  7043.8835  0007.0439  0007.1875  0777.0000 
0732.6900  0031.5000  0301.6800  0045.2000  0791.0000  7040.0255  0007.0400  7061.6947  0007.0617  0007.0330  0791.0000 
0732.7900  0031.9000  0301.4000  0044.7000  0765.0000  6960.9104  0006.9609  6914.4619  0006.9145  0006.9639  0765.0000 
0732.8900  0031.8000  0301.1000  0044.8000  0765.0000  6775.5019  0006.7755  6820.2034  0006.8202  0006.7994  0765.0000 
0732.9900  0031.7000  0300.5800  0044.9000  0762.0000  6722.0171  0006.7220  6639.9992  0006.6400  0006.6305  0762.0000 
0733.0900  0031.5800  0300.4200  0045.0600  0761.0000  6929.6133  0006.9296  6488.5303  0006.4885  0006.5979  0761.0000 
0733.1900  0031.4000  0300.3000  0045.3000  0753.0000  6899.9108  0006.8999  6373.0041  0006.3730  0006.5868  0753.0000 
0733.2900  0032.7000  0300.1000  0043.8000  0753.0000  6838.9223  0006.8389  6256.0589  0006.2561  0006.5721  0753.0000 
0733.3900  0031.2000  0300.4000  0045.5000  0763.0000  6795.5678  0006.7956  6234.1394  0006.2341  0006.5146  0763.0000 
0733.4900  0032.3000  0300.4000  0044.3000  0779.0000  6987.4726  0006.9875  6201.1335  0006.2011  0006.4966  0779.0000 
0733.5900  0031.1000  0299.9000  0045.7000  0779.0000  6991.6989  0006.9917  6239.4275  0006.2394  0006.6353  0779.0000 
0733.6900  0031.1000  0299.7000  0045.7000  0768.0000  7109.1722  0007.1092  6298.8756  0006.2989  0006.6402  0768.0000 
0733.7900  0033.2000  0299.6000  0043.3500  0776.0000  7238.1186  0007.2381  6304.9644  0006.3050  0006.6807  0776.0000 
0733.8900  0033.9000  0299.0000  0042.5000  0776.0000  7273.0915  0007.2731  6231.0743  0006.2311  0006.8251  0776.0000 
0733.9900  0029.3000  0299.5000  0047.9000  0742.0000  7354.3557  0007.3544  6420.7042  0006.4207  0006.8591  0742.0000 
0734.0900  0029.3000  0299.5000  0047.9000  0723.0000  7411.2748  0007.4113  6492.0580  0006.4921  0006.8891  0723.0000 
0734.1900  0032.1000  0299.3000  0044.5000  0715.0000  7303.3729  0007.3034  6393.2639  0006.3933  0006.9129  0715.0000 
0734.2900  0032.8000  0299.1750  0043.7000  0715.0000  7228.8641  0007.2289  6381.6569  0006.3817  0006.8803  0715.0000 
0734.3900  0031.5500  0299.1000  0045.1500  0732.0000  7177.3889  0007.1774  6474.1208  0006.4741  0006.8711  0732.0000 
0734.4900  0031.5000  0299.7333  0045.2000  0734.0000  7161.8019  0007.1618  6602.2216  0006.6022  0006.9719  0734.0000 
0734.5900  0032.8000  0300.3000  0043.7000  0728.0000  7218.0201  0007.2180  6791.0322  0006.7910  0006.9992  0728.0000 
0734.6900  0031.4000  0301.2000  0045.2000  0721.0000  7156.5453  0007.1565  6810.4777  0006.8105  0007.0076  0721.0000 
0734.7900  0031.4000  0302.1800  0045.2000  0721.0000  7297.2015  0007.2972  6853.8809  0006.8539  0007.0876  0721.0000 
0734.8900  0032.0000  0302.8000  0044.5000  0726.0000  7414.3070  0007.4143  6952.1763  0006.9522  0007.1200  0726.0000 
0734.9900  0031.6600  0303.9000  0044.4000  0719.0000  7456.2261  0007.4562  6962.2718  0006.9623  0007.1401  0719.0000 
0735.0900  0031.5000  0304.5000  0045.1000  0715.0000  7188.1934  0007.1882  6842.1866  0006.8422  0007.0248  0715.0000 
0735.1900  0032.2000  0305.0000  0044.4000  0708.0000  6979.4989  0006.9795  6673.7872  0006.6738  0006.9078  0708.0000 
0735.2900  0032.5500  0306.7500  0043.9250  0696.0000  6916.7983  0006.9168  6647.1199  0006.6471  0006.7756  0696.0000 
0735.3900  0032.9000  0309.2400  0043.5000  0719.0000  7203.2970  0007.2033  6585.8487  0006.5858  0006.7480  0719.0000 
0735.4900  0030.7667  0313.0667  0045.7000  0731.0000  6828.4352  0006.8284  6579.1524  0006.5792  0006.9019  0731.0000 
0735.5900  0030.5000  0316.0000  0046.0000  0731.0000  6718.8598  0006.7189  6752.1990  0006.7522  0006.7385  0731.0000 
0735.6900  0032.8000  0316.2000  0043.7000  0703.0000  6587.2016  0006.5872  6769.0590  0006.7691  0006.6774  0703.0000 
0735.7900  0032.8000  0316.7000  0043.7000  0695.0000  6545.2777  0006.5453  6631.2979  0006.6313  0006.4666  0695.0000 
0735.8900  0031.6000  0317.8000  0045.0000  0713.0000  6678.9135  0006.6789  6323.5942  0006.3236  0006.4162  0713.0000 
0735.9900  0032.4000  0319.0000  0044.0000  0713.0000  6725.0252  0006.7250  6287.1818  0006.2872  0006.5933  0713.0000 
0736.0900  0032.4000  0320.4000  0044.0000  0699.0000  6662.5321  0006.6625  6495.6631  0006.4957  0006.6120  0699.0000 
0736.1900  0031.7000  0322.2000  0044.9000  0699.0000  6680.8312  0006.6808  6502.6342  0006.5026  0006.5866  0699.0000 
0736.2900  0031.6000  0323.2000  0045.1000  0690.0000  6589.5496  0006.5895  6531.9383  0006.5319  0006.6491  0690.0000 
0736.3900  0032.4000  0324.3000  0044.1000  0713.0000  6546.4700  0006.5465  6624.1841  0006.6242  0006.6665  0713.0000 
0736.4900  0032.1400  0325.0200  0044.5200  0715.0000  6780.7731  0006.7808  6773.3456  0006.7733  0006.7926  0715.0000 
0736.5900  0032.3000  0326.0000  0044.3000  0715.0000  6912.8973  0006.9129  6909.7714  0006.9098  0006.8403  0715.0000 
0736.6900  0031.9000  0326.6000  0044.8000  0701.0000  6959.1839  0006.9592  6923.2104  0006.9232  0006.8980  0701.0000 
0736.7900  0032.2000  0326.9000  0044.5000  0701.0000  6920.2548  0006.9203  6865.6527  0006.8657  0006.9114  0701.0000 
0736.8900  0032.2000  0327.0000  0044.8000  0713.0000  6979.4870  0006.9795  6857.0309  0006.8570  0006.8346  0713.0000 
0736.9900  0032.4000  0326.4400  0044.4000  0727.0000  7085.1384  0007.0851  6708.0061  0006.7080  0006.8212  0727.0000 
