~Version Information Section
VERS.                         2.0                 : CWLS log ASCII Standard -VERSION 2.0
WRAP.                         NO                  : One line per depth step
~Well Information Section
STRT.m                        0.0900          : Start index
STOP.m                        1103.4900           : Stop index
STEP.m                        0.1                 : Index step
NULL.                         -999.25             : NULL VALUE
DATE.                         19.11.2013          : Date of recording
TIME.                         22.05               : Time of recording
COMP.                         Lukoil              : Customer company name
WELL.                         1057                : Well name
FLD.                          HAUZAK              : Field name
LOC.                          HAUZAK              : Well location
SRVC.                         PITC                : Logging company
BUSH.                                             : Bush
CTRY.                         Uzbekistan          : Country
STAT.                                             : State
CNTY.                                             : County
API.                                              : API number
PBR.                          1.24                : Plotnost'
VBR.                          50                  : Vyazkost'
VO.                           5.6                 : Vodootdacha
OPER.           Mihaylov I. A. +998907105999      : operator
~Curve Information Section
DEPT.m                                            : 
DEVI.deg                                          : Зенит(гр)
VIZIR.deg                                          : Визир(гр)
AZIM.deg                                          : Азимут(гр)
SPED.mph                                          : Скорость(м/ч)
GRC1.cpm                                       : ГК1(имп/мин)
GR1.ur/h                                         : ГК1(мкр/ч)
GRC2.cpm                                       : ГК2(имп/мин)
GR2.ur/h                                         : ГК2(мкр/ч)
GR.ur/h                                           : ГК(мкр/ч)
SPED.mph                                          : Скорость(м/ч)
~Other Information Section
#    File was produced by KarSar 500 (c) GeoFT    #
Имя записи                                        : Каскад [4].KAR
Дата конвертации                                  : 19.11.2013 23:14:51
Прибор                                            : Каскад
Режим                                             : Основной
Калибровка                                        : ГК-Т № 412 + ИФМ-К-76 № 568
~ASCII Log Data
# ...
0944.7900  0042.3000  0033.7000  0044.4000  0797.0000  7739.2968  0007.7393  7111.6708  0007.1117  0007.2814  0797.0000 
0944.8900  0043.0000  0034.3000  0043.6000  0824.0000  7588.4477  0007.5884  6839.6776  0006.8397  0007.2403  0824.0000 
0944.9900  0042.9000  0035.0000  0043.8000  0824.0000  7920.6506  0007.9207  6809.2870  0006.8093  0007.3665  0824.0000 
0945.0900  0043.2000  0036.1000  0043.4000  0786.0000  8094.7371  0008.0947  6933.3338  0006.9333  0007.4235  0786.0000 
0945.1900  0042.9000  0036.9000  0043.8000  0784.0000  8158.3190  0008.1583  6939.8099  0006.9398  0007.4670  0784.0000 
0945.2900  0042.9000  0037.1400  0043.8000  0787.0000  7967.5527  0007.9676  6806.3713  0006.8064  0007.4765  0787.0000 
0945.3900  0043.3000  0037.5000  0043.3000  0794.0000  7906.7339  0007.9067  6785.1533  0006.7852  0007.3747  0794.0000 
0945.4900  0043.3000  0037.5500  0043.3000  0807.0000  7866.3657  0007.8664  6804.3256  0006.8043  0007.3567  0807.0000 
0945.5900  0042.6600  0037.7600  0044.0400  0812.0000  7831.9685  0007.8320  6825.6208  0006.8256  0007.3872  0812.0000 
0945.6900  0043.4000  0037.8000  0043.3000  0795.0000  8082.0888  0008.0821  6927.7748  0006.9278  0007.4576  0795.0000 
0945.7900  0043.4000  0037.5000  0043.3000  0795.0000  8157.3536  0008.1574  7034.1116  0007.0341  0007.5668  0795.0000 
0945.8900  0042.9000  0037.7000  0043.7000  0816.0000  7931.3773  0007.9314  7044.6918  0007.0447  0007.5896  0816.0000 
0945.9900  0043.2000  0037.3000  0043.4000  0820.0000  7663.2446  0007.6632  6835.5781  0006.8356  0007.3230  0820.0000 
0946.0900  0042.9000  0037.0000  0043.8000  0798.0000  7440.7569  0007.4408  6733.9792  0006.7340  0007.1572  0798.0000 
0946.1900  0042.7600  0036.5200  0043.5000  0798.0000  7379.0031  0007.3790  6671.4272  0006.6714  0007.0152  0798.0000 
0946.2900  0042.7000  0036.1600  0043.9000  0792.0000  7584.0012  0007.5840  6603.3728  0006.6034  0006.9877  0792.0000 
0946.3900  0043.1600  0035.9400  0043.4800  0789.0000  7416.9558  0007.4170  6749.0056  0006.7490  0007.1565  0789.0000 
0946.4900  0043.2000  0035.8000  0043.4000  0789.0000  7234.6021  0007.2346  6765.9537  0006.7660  0007.0060  0789.0000 
0946.5900  0042.8000  0035.9000  0043.9000  0796.0000  7079.4716  0007.0795  6612.7789  0006.6128  0006.9345  0796.0000 
0946.6900  0043.1000  0035.9000  0043.5000  0789.0000  6933.8579  0006.9339  6602.2893  0006.6023  0006.8468  0789.0000 
0946.7900  0042.7000  0036.0000  0044.0000  0789.0000  6818.1027  0006.8181  6659.8809  0006.6599  0006.7935  0789.0000 
0946.8900  0042.7000  0036.2000  0044.0000  0805.0000  6786.3273  0006.7863  6672.4276  0006.6724  0006.7332  0805.0000 
0946.9900  0043.3000  0036.6000  0043.4000  0793.0000  6921.9262  0006.9219  6677.9273  0006.6779  0006.7202  0793.0000 
0947.0900  0042.8000  0037.0000  0043.9000  0793.0000  6576.3169  0006.5763  6622.0102  0006.6220  0006.6497  0793.0000 
0947.1900  0043.1000  0037.2800  0043.5000  0791.0000  6359.7005  0006.3597  6548.1629  0006.5482  0006.5185  0791.0000 
0947.2900  0042.9000  0037.6400  0043.8000  0785.0000  6281.4478  0006.2814  6470.4808  0006.4705  0006.4086  0785.0000 
0947.3900  0043.0500  0037.9500  0043.6500  0785.0000  6293.5352  0006.2935  6462.7173  0006.4627  0006.2590  0785.0000 
0947.4900  0043.1000  0038.2000  0043.5000  0790.0000  6467.3914  0006.4674  6206.7956  0006.2068  0006.2191  0790.0000 
0947.5900  0043.2000  0038.6000  0043.5000  0798.0000  6539.0582  0006.5391  6138.3785  0006.1384  0006.2082  0798.0000 
0947.6900  0042.7000  0039.5000  0044.0000  0801.0000  6164.9280  0006.1649  5899.0443  0005.8990  0006.0787  0801.0000 
0947.7900  0042.8000  0041.9000  0043.9000  0816.0000  6085.1657  0006.0852  5820.8383  0005.8208  0005.9244  0816.0000 
0947.8900  0042.7000  0043.3000  0044.0000  0816.0000  6071.8928  0006.0719  5685.7421  0005.6857  0005.8852  0816.0000 
0947.9900  0043.3000  0045.0400  0043.4000  0809.0000  6129.5243  0006.1295  5671.3744  0005.6714  0005.9454  0809.0000 
0948.0900  0042.8000  0047.3800  0044.0000  0789.0000  5979.7388  0005.9797  5782.5591  0005.7826  0005.9610  0789.0000 
0948.1900  0043.3000  0050.3600  0043.4000  0789.0000  5921.4385  0005.9214  5675.4893  0005.6755  0005.8308  0789.0000 
0948.2900  0042.8000  0052.5000  0043.9000  0799.0000  6152.1156  0006.1521  5662.5011  0005.6625  0005.8162  0799.0000 
0948.3900  0042.8000  0054.5000  0043.9000  0790.0000  6207.0839  0006.2071  5733.6855  0005.7337  0006.0462  0790.0000 
0948.4900  0042.8000  0056.9000  0044.0000  0794.0000  6307.4507  0006.3075  5948.9420  0005.9489  0006.0849  0794.0000 
0948.5900  0042.7000  0060.0000  0043.8000  0803.0000  6348.6698  0006.3487  5972.5786  0005.9726  0006.1332  0803.0000 
0948.6900  0043.3000  0062.1000  0043.4000  0810.0000  6289.1313  0006.2891  5846.3124  0005.8463  0006.1593  0810.0000 
0948.7900  0043.5000  0064.8750  0043.2000  0810.0000  6392.5325  0006.3925  5808.0496  0005.8080  0006.0396  0810.0000 
0948.8900  0042.9400  0066.6400  0043.8600  0803.0000  6428.3095  0006.4283  5790.0671  0005.7901  0006.1982  0803.0000 
0948.9900  0042.7000  0068.2600  0044.1000  0813.0000  6435.1758  0006.4352  6006.8993  0006.0069  0006.2367  0813.0000 
0949.0900  0043.0000  0068.8000  0043.7000  0813.0000  6595.4172  0006.5954  6048.7774  0006.0488  0006.1590  0813.0000 
0949.1900  0043.0000  0069.0000  0043.7000  0796.0000  6683.6517  0006.6837  5875.8919  0005.8759  0006.1375  0796.0000 
0949.2900  0043.1000  0069.5667  0043.6000  0795.0000  6737.8028  0006.7378  5856.0168  0005.8560  0006.3270  0795.0000 
0949.3900  0042.8000  0070.2000  0044.0000  0791.0000  6618.1032  0006.6181  5977.1623  0005.9772  0006.3489  0791.0000 
0949.4900  0043.0400  0070.9400  0043.6600  0791.0000  6557.8490  0006.5578  5985.7836  0005.9858  0006.2003  0791.0000 
0949.5900  0043.2000  0071.5200  0043.5000  0810.0000  6621.5224  0006.6215  5784.9006  0005.7849  0006.1625  0810.0000 
0949.6900  0043.0833  0071.8750  0043.6583  0821.0000  6676.4960  0006.6765  5767.1302  0005.7671  0006.2733  0821.0000 
0949.7900  0042.7000  0072.0000  0044.0200  0821.0000  6583.7350  0006.5837  5743.4420  0005.7434  0006.1779  0821.0000 
0949.8900  0042.7000  0072.1000  0044.1000  0837.0000  6536.5898  0006.5366  5719.4440  0005.7194  0006.3136  0837.0000 
0949.9900  0042.9400  0072.1000  0043.7600  0837.0000  6640.8167  0006.6408  6067.8604  0006.0679  0006.2721  0837.0000 
0950.0900  0043.0000  0072.0000  0043.7000  0817.0000  6816.0901  0006.8161  6082.8034  0006.0828  0006.2467  0817.0000 
0950.1900  0042.9000  0071.9500  0043.7000  0800.0000  6882.0621  0006.8821  5834.4053  0005.8344  0006.2968  0800.0000 
0950.2900  0042.8000  0071.6800  0043.9000  0794.0000  6767.8738  0006.7679  5747.0921  0005.7471  0006.3337  0794.0000 
0950.3900  0043.0000  0071.4000  0043.7000  0794.0000  6750.8970  0006.7509  5858.3243  0005.8583  0006.3027  0794.0000 
0950.4900  0042.7000  0071.1000  0044.0000  0802.0000  6574.0450  0006.5740  5871.6244  0005.8716  0006.2935  0802.0000 
0950.5900  0043.0000  0069.9000  0043.7000  0807.0000  6408.1936  0006.4082  5912.1484  0005.9121  0006.2362  0807.0000 
0950.6900  0042.9000  0068.6000  0043.8000  0822.0000  6173.6138  0006.1736  5925.6768  0005.9257  0006.1006  0822.0000 
0950.7900  0042.8000  0067.2000  0044.0000  0822.0000  6086.0015  0006.0860  5790.1350  0005.7901  0005.9292  0822.0000 
0950.8900  0043.1000  0065.9000  0043.7000  0806.0000  6084.7826  0006.0848  5705.3346  0005.7053  0005.8932  0806.0000 
0950.9900  0042.6000  0064.6200  0044.2000  0806.0000  6297.8252  0006.2978  5697.5926  0005.6976  0005.9420  0806.0000 
0951.0900  0043.1500  0063.5000  0043.6000  0805.0000  6513.2221  0006.5132  5806.7448  0005.8067  0006.0233  0805.0000 
0951.1900  0043.4000  0062.2000  0043.3000  0797.0000  6567.0638  0006.5671  5817.1094  0005.8171  0006.1870  0797.0000 
0951.2900  0043.0000  0061.1000  0043.7000  0796.0000  6420.7927  0006.4208  5861.4808  0005.8615  0006.2236  0796.0000 
0951.3900  0042.7000  0060.0000  0044.1000  0796.0000  6498.4748  0006.4985  5931.9814  0005.9320  0006.1671  0796.0000 
