~Version Information Section
VERS.                         2.0                 : CWLS log ASCII Standard -VERSION 2.0
WRAP.                         NO                  : One line per depth step
~Well Information Section
STRT.m                        0.0900          : Start index
STOP.m                        1103.4900           : Stop index
STEP.m                        0.1                 : Index step
NULL.                         -999.25             : NULL VALUE
DATE.                         19.11.2013          : Date of recording
TIME.                         22.05               : Time of recording
COMP.                         Lukoil              : Customer company name
WELL.                         1057                : Well name
FLD.                          HAUZAK              : Field name
LOC.                          HAUZAK              : Well location
SRVC.                         PITC                : Logging company
BUSH.                                             : Bush
CTRY.                         Uzbekistan          : Country
STAT.                                             : State
CNTY.                                             : County
API.                                              : API number
PBR.                          1.24                : Plotnost'
VBR.                          50                  : Vyazkost'
VO.                           5.6                 : Vodootdacha
OPER.           Mihaylov I. A. +998907105999      : operator
~Curve Information Section
DEPT.m                                            : 
DEVI.deg                                          : Зенит(гр)
VIZIR.deg                                          : Визир(гр)
AZIM.deg                                          : Азимут(гр)
SPED.mph                                          : Скорость(м/ч)
GRC1.cpm                                       : ГК1(имп/мин)
GR1.ur/h                                         : ГК1(мкр/ч)
GRC2.cpm                                       : ГК2(имп/мин)
GR2.ur/h                                         : ГК2(мкр/ч)
GR.ur/h                                           : ГК(мкр/ч)
SPED.mph                                          : Скорость(м/ч)
~Other Information Section
#    File was produced by KarSar 500 (c) GeoFT    #
Имя записи                                        : Каскад [4].KAR
Дата конвертации                                  : 19.11.2013 23:14:51
Прибор                                            : Каскад
Режим                                             : Основной
Калибровка                                        : ГК-Т № 412 + ИФМ-К-76 № 568
~ASCII Log Data
# ...
1092.1900  0047.4000  0258.3000  0045.8000  -0999.2500 7805.2732  0007.8053  7207.3439  0007.2073  0007.6016  -0999.2500
1092.2900  0047.4000  0256.0000  0045.5000  -0999.2500 7652.5949  0007.6526  7354.7088  0007.3547  0007.5267  -0999.2500
1092.3900  0047.5000  0253.1000  0045.4000  -0999.2500 7590.0892  0007.5901  7371.1221  0007.3711  0007.4383  -0999.2500
1092.4900  0046.9000  0248.3000  0046.1000  -0999.2500 7909.5729  0007.9096  7220.1495  0007.2201  0007.4206  -0999.2500
1092.5900  0046.9000  0245.9000  0046.1000  -0999.2500 7785.7628  0007.7858  7051.4081  0007.0514  0007.4694  -0999.2500
1092.6900  0047.5000  0245.5000  0045.4000  -0999.2500 7895.8301  0007.8958  7029.2253  0007.0292  0007.4316  -0999.2500
1092.7900  0046.8000  0244.4000  0046.2000  -0999.2500 8024.7503  0008.0248  7096.0093  0007.0960  0007.5713  -0999.2500
1092.8900  0047.3000  0243.5000  0045.6000  -0999.2500 8056.4812  0008.0565  7244.1113  0007.2441  0007.6335  -0999.2500
1092.9900  0047.0000  0242.5000  0046.0000  -0999.2500 7849.0659  0007.8491  7259.8188  0007.2598  0007.6675  -0999.2500
1093.0900  0047.3000  0239.7000  0045.6000  -0999.2500 7673.0493  0007.6730  7321.2341  0007.3212  0007.5321  -0999.2500
1093.1900  0047.0000  0232.9000  0045.9000  -0999.2500 7588.3276  0007.5883  7331.9656  0007.3320  0007.3942  -0999.2500
1093.2900  0047.0000  0225.0000  0045.9000  -0999.2500 7483.7188  0007.4837  7119.6306  0007.1196  0007.1935  -0999.2500
1093.3900  0046.9000  0218.4000  0046.1000  -0999.2500 7446.2401  0007.4462  6766.3043  0006.7663  0007.1433  -0999.2500
1093.4900  0046.9000  0211.1000  0046.1000  -0999.2500 7762.4339  0007.7624  6728.2319  0006.7282  0007.1641  -0999.2500
1093.5900  0046.8000  0203.3000  0046.2000  -0999.2500 7861.0954  0007.8611  6837.2224  0006.8372  0007.2743  -0999.2500
1093.6900  0046.8000  0198.1000  0046.3000  -0999.2500 7626.1359  0007.6261  6746.5459  0006.7465  0007.3890  -0999.2500
1093.7900  0047.2000  0192.7000  0046.2000  -0999.2500 7872.3113  0007.8723  7107.3628  0007.1074  0007.4112  -0999.2500
1093.8900  0047.0000  0188.0000  0045.9000  -0999.2500 7986.6293  0007.9866  7148.2017  0007.1482  0007.5228  -0999.2500
1093.9900  0046.9000  0184.7000  0046.3000  -0999.2500 7605.9502  0007.6060  7128.0204  0007.1280  0007.5618  -0999.2500
1094.0900  0047.3000  0182.5000  0046.3000  -0999.2500 8195.1125  0008.1951  7136.9920  0007.1370  0007.3694  -0999.2500
1094.1900  0047.2000  0181.5000  0046.0000  -0999.2500 7591.0712  0007.5911  6814.9992  0006.8150  0007.4874  -0999.2500
1094.2900  0047.2000  0182.2000  0045.9000  -0999.2500 7495.2807  0007.4953  6779.6862  0006.7797  0007.2261  -0999.2500
1094.3900  0047.2000  0182.7000  0045.9000  -0999.2500 7633.8907  0007.6339  6897.3649  0006.8974  0007.0309  -0999.2500
1094.4900  0046.9000  0178.2000  0045.9000  -0999.2500 7826.2973  0007.8263  6479.8415  0006.4798  0007.2442  -0999.2500
1094.5900  0046.7000  0173.9000  0046.4000  -0999.2500 7892.4425  0007.8924  6432.9780  0006.4330  0007.4162  -0999.2500
1094.6900  0046.8000  0166.9000  0046.3000  -0999.2500 7963.8737  0007.9639  6988.9824  0006.9890  0007.5342  -0999.2500
1094.7900  0047.2000  0162.0000  0046.4000  -0999.2500 7687.7371  0007.6877  7264.4396  0007.2644  0007.5570  -0999.2500
1094.8900  0046.6000  0156.4000  0046.4000  -0999.2500 7542.8662  0007.5429  7294.4907  0007.2945  0007.3255  -0999.2500
1094.9900  0047.0000  0150.4000  0046.0000  -0999.2500 8139.8479  0008.1398  7007.9810  0007.0080  0007.2736  -0999.2500
1095.0900  0046.6000  0144.1000  0046.5000  -0999.2500 8215.1380  0008.2151  7200.5320  0007.2005  0007.5932  -0999.2500
1095.1900  0046.7000  0138.0000  0046.4000  -0999.2500 7933.4116  0007.9334  6892.5469  0006.8925  0007.5355  -0999.2500
1095.2900  0046.9000  0134.0000  0046.4000  -0999.2500 7863.1258  0007.8631  6855.9050  0006.8559  0007.5757  -0999.2500
1095.3900  0046.9000  0129.4000  0046.2000  -0999.2500 7653.0138  0007.6530  7218.0653  0007.2181  0007.3267  -0999.2500
1095.4900  0046.6000  0126.6000  0046.6000  -0999.2500 7515.5682  0007.5156  6777.2269  0006.7772  0007.2722  -0999.2500
1095.5900  0046.6000  0123.9000  0046.6000  -0999.2500 7766.4605  0007.7665  6743.4144  0006.7434  0007.3451  -0999.2500
1095.6900  0046.7000  0120.6000  0046.5000  -0999.2500 7887.5800  0007.8876  7206.0229  0007.2060  0007.4550  -0999.2500
1095.7900  0047.0000  0118.2000  0046.1000  -0999.2500 7691.4698  0007.6915  7226.8263  0007.2268  0007.2211  -0999.2500
1095.8900  0046.7000  0115.4000  0046.5000  -0999.2500 7764.7568  0007.7648  6666.5065  0006.6665  0007.1564  -0999.2500
1095.9900  0046.9000  0111.8000  0046.2000  -0999.2500 8073.1941  0008.0732  6621.4167  0006.6214  0007.4534  -0999.2500
1096.0900  0046.7000  0109.2000  0046.5000  -0999.2500 8191.9541  0008.1920  7136.7839  0007.1368  0007.7219  -0999.2500
1096.1900  0046.7000  0106.8000  0046.3000  -0999.2500 7736.7496  0007.7367  7354.6040  0007.3546  0007.7851  -0999.2500
1096.2900  0046.5000  0104.5000  0046.7000  -0999.2500 7661.4457  0007.6614  7104.2165  0007.1042  0007.3505  -0999.2500
1096.3900  0047.0000  0101.6000  0046.1000  -0999.2500 7980.3074  0007.9803  6978.7413  0006.9787  0007.3148  -0999.2500
1096.4900  0046.7000  0099.3000  0046.5000  -0999.2500 8084.2581  0008.0843  7314.1456  0007.3141  0007.7627  -0999.2500
1096.5900  0047.0000  0096.8000  0046.1000  -0999.2500 7969.8329  0007.9698  7534.6316  0007.5346  0007.8135  -0999.2500
1096.6900  0046.4000  0095.0000  0046.8000  -0999.2500 7918.5727  0007.9186  6957.4235  0006.9574  0007.3339  -0999.2500
1096.7900  0047.1000  0093.6000  0046.0000  -0999.2500 8039.1192  0008.0391  6693.0325  0006.6930  0007.2948  -0999.2500
1096.8900  0047.2000  0092.2000  0045.8000  -0999.2500 7831.3405  0007.8313  6671.0315  0006.6710  0007.4082  -0999.2500
1096.9900  0047.2000  0090.5000  0045.9000  -0999.2500 7785.9510  0007.7860  6916.6493  0006.9166  0007.4772  -0999.2500
1097.0900  0046.5000  0088.8000  0046.6000  -0999.2500 7939.0578  0007.9391  7156.0221  0007.1560  0007.3527  -0999.2500
1097.1900  0046.4000  0086.3000  0046.7000  -0999.2500 8008.1144  0008.0081  6889.8090  0006.8898  0007.6273  -0999.2500
1097.2900  0046.8000  0083.9000  0046.1000  -0999.2500 7757.4670  0007.7575  7346.8080  0007.3468  0007.7046  -0999.2500
1097.3900  0046.4000  0081.1000  0046.2000  -0999.2500 7587.2844  0007.5873  7401.1693  0007.4012  0007.5426  -0999.2500
1097.4900  0046.2000  0078.7000  0046.9000  -0999.2500 7522.1359  0007.5221  7285.3382  0007.2853  0007.4576  -0999.2500
1097.5900  0046.3000  0076.6000  0046.3000  -0999.2500 7812.8838  0007.8129  7381.3220  0007.3813  0007.6150  -0999.2500
1097.6900  0046.5000  0074.5000  0046.4000  -0999.2500 7759.3703  0007.7594  7491.9052  0007.4919  0007.6607  -0999.2500
1097.7900  0046.7000  0072.6000  0046.1000  -0999.2500 7837.0782  0007.8371  7186.7777  0007.1868  0007.4552  -0999.2500
1097.8900  0046.3000  0070.7000  0046.6000  -0999.2500 7670.5009  0007.6705  7091.1376  0007.0911  0007.5196  -0999.2500
1097.9900  0046.2000  0068.6000  0046.2000  -0999.2500 7455.9106  0007.4559  7304.7114  0007.3047  0007.4434  -0999.2500
1098.0900  0046.5000  0065.2000  0046.3000  -0999.2500 7376.6050  0007.3766  7329.1812  0007.3292  0007.3718  -0999.2500
1098.1900  0046.1000  0061.6000  0046.6000  -0999.2500 7855.4461  0007.8554  7200.2899  0007.2003  0007.5515  -0999.2500
1098.2900  0046.1000  0058.8000  0046.6000  -0999.2500 -0999.2500 -0999.2500 7343.4076  0007.3434  0007.5995  -0999.2500
1098.3900  0046.1000  0054.4000  0046.5000  -0999.2500 -0999.2500 -0999.2500 7223.2261  0007.2232  -0999.2500 -0999.2500
1098.4900  0045.5000  0051.0000  0047.1000  -0999.2500 -0999.2500 -0999.2500 -0999.2500 -0999.2500 -0999.2500 -0999.2500
1098.5900  0046.4000  0047.3000  0046.0000  -0999.2500 -0999.2500 -0999.2500 -0999.2500 -0999.2500 -0999.2500 -0999.2500
1098.6900  0046.4000  0041.7000  0046.0000  -0999.2500 -0999.2500 -0999.2500 -0999.2500 -0999.2500 -0999.2500 -0999.2500
1098.7900  0046.2000  0036.4000  0046.2000  -0999.2500 -0999.2500 -0999.2500 -0999.2500 -0999.2500 -0999.2500 -0999.2500
