~Version Information Section
VERS.                         2.0                 : CWLS log ASCII Standard -VERSION 2.0
WRAP.                         NO                  : One line per depth step
~Well Information Section
STRT.m                        0.0900          : Start index
STOP.m                        1103.4900           : Stop index
STEP.m                        0.1                 : Index step
NULL.                         -999.25             : NULL VALUE
DATE.                         19.11.2013          : Date of recording
TIME.                         22.05               : Time of recording
COMP.                         Lukoil              : Customer company name
WELL.                         1057                : Well name
FLD.                          HAUZAK              : Field name
LOC.                          HAUZAK              : Well location
SRVC.                         PITC                : Logging company
BUSH.                                             : Bush
CTRY.                         Uzbekistan          : Country
STAT.                                             : State
CNTY.                                             : County
API.                                              : API number
PBR.                          1.24                : Plotnost'
VBR.                          50                  : Vyazkost'
VO.                           5.6                 : Vodootdacha
OPER.           Mihaylov I. A. +998907105999      : operator
~Curve Information Section
DEPT.m                                            : 
DEVI.deg                                          : Зенит(гр)
VIZIR.deg                                          : Визир(гр)
AZIM.deg                                          : Азимут(гр)
SPED.mph                                          : Скорость(м/ч)
GRC1.cpm                                       : ГК1(имп/мин)
GR1.ur/h                                         : ГК1(мкр/ч)
GRC2.cpm                                       : ГК2(имп/мин)
GR2.ur/h                                         : ГК2(мкр/ч)
GR.ur/h                                           : ГК(мкр/ч)
SPED.mph                                          : Скорость(м/ч)
~Other Information Section
#    File was produced by KarSar 500 (c) GeoFT    #
Имя записи                                        : Каскад [4].KAR
Дата конвертации                                  : 19.11.2013 23:14:51
Прибор                                            : Каскад
Режим                                             : Основной
Калибровка                                        : ГК-Т № 412 + ИФМ-К-76 № 568
~ASCII Log Data
# ...
0294.8900  0009.9000  0279.1000  0042.8000  0779.0000  5055.0004  0005.0550  4771.6544  0004.7717  0004.9255  0779.0000 
0294.9900  0010.0000  0276.9000  0043.4000  0796.0000  5137.7968  0005.1378  4831.2691  0004.8313  0004.9406  0796.0000 
0295.0900  0010.0000  0272.8400  0043.4000  0796.0000  5217.8567  0005.2179  4831.2691  0004.8313  0004.9594  0796.0000 
0295.1900  0009.9000  0270.6600  0042.9400  0772.0000  5291.4083  0005.2914  4757.6826  0004.7577  0005.0088  0772.0000 
0295.2900  0009.9000  0269.2000  0042.7000  0767.0000  5314.0769  0005.3141  4757.6826  0004.7577  0005.0314  0767.0000 
0295.3900  0009.9000  0267.5000  0042.7000  0803.0000  5152.7149  0005.1527  4754.4610  0004.7545  0005.0167  0803.0000 
0295.4900  0009.9000  0264.8000  0042.6000  0803.0000  5110.1911  0005.1102  4754.4610  0004.7545  0004.9575  0803.0000 
0295.5900  0010.0000  0264.3000  0042.6000  0771.0000  5216.9947  0005.2170  4777.3384  0004.7773  0004.9138  0771.0000 
0295.6900  0009.9000  0263.5000  0042.5000  0771.0000  5255.8539  0005.2559  4686.2973  0004.6863  0004.9589  0771.0000 
0295.7900  0009.9000  0263.5000  0042.7000  0789.0000  5144.9642  0005.1450  4686.2973  0004.6863  0004.9720  0789.0000 
0295.8900  0009.9000  0263.9800  0042.3000  0794.0000  5258.8490  0005.2588  4770.5873  0004.7706  0005.0255  0794.0000 
0295.9900  0009.9000  0264.7000  0042.2000  0798.0000  5189.9503  0005.1900  4825.9230  0004.8259  0005.0455  0798.0000 
0296.0900  0009.8000  0264.8000  0042.5000  0798.0000  5140.5419  0005.1405  4902.6564  0004.9027  0005.0928  0798.0000 
0296.1900  0009.8250  0264.2750  0042.3000  0787.0000  5002.4110  0005.0024  4990.2557  0004.9903  0004.9971  0787.0000 
0296.2900  0009.8000  0263.3000  0042.5000  0780.0000  4945.2764  0004.9453  4833.4206  0004.8334  0004.9364  0780.0000 
0296.3900  0009.8000  0262.8000  0042.2000  0790.0000  4902.8514  0004.9029  4833.4206  0004.8334  0004.9280  0790.0000 
0296.4900  0010.0000  0261.7000  0042.0000  0799.0000  4886.9201  0004.8869  4946.3989  0004.9464  0004.8902  0799.0000 
0296.5900  0009.7000  0260.0000  0043.1000  0784.0000  4784.8226  0004.7848  4866.8645  0004.8669  0004.8769  0784.0000 
0296.6900  0010.0000  0259.4000  0041.9000  0754.0000  4725.5750  0004.7256  4837.2243  0004.8372  0004.8040  0754.0000 
0296.7900  0010.0000  0257.5000  0042.8000  0751.0000  4810.5880  0004.8106  4837.2243  0004.8372  0004.7352  0751.0000 
0296.8900  0010.0000  0254.1000  0042.9000  0770.0000  4691.7642  0004.6918  4634.8463  0004.6348  0004.6808  0770.0000 
0296.9900  0010.0000  0253.3000  0042.1000  0792.0000  4670.4426  0004.6704  4599.2270  0004.5992  0004.6222  0792.0000 
0297.0900  0010.0000  0253.1000  0042.0000  0792.0000  4548.6210  0004.5486  4549.9041  0004.5499  0004.6102  0792.0000 
0297.1900  0010.0000  0254.4500  0041.8000  0778.0000  4414.5060  0004.4145  4623.3936  0004.6234  0004.5303  0778.0000 
0297.2900  0010.0000  0255.9000  0041.8000  0769.0000  4383.3813  0004.3834  4509.7499  0004.5097  0004.4366  0769.0000 
0297.3900  0009.9000  0257.6500  0041.7000  0794.0000  4436.6584  0004.4367  4458.8253  0004.4588  0004.4211  0794.0000 
0297.4900  0009.8000  0259.6000  0042.0000  0794.0000  4376.8192  0004.3768  4458.8253  0004.4588  0004.4653  0794.0000 
0297.5900  0009.9000  0260.1000  0042.0000  0770.0000  4366.6085  0004.3666  4538.5120  0004.5385  0004.4990  0770.0000 
0297.6900  0010.0000  0260.5333  0042.0000  0764.0000  4410.2274  0004.4102  4646.0931  0004.6461  0004.5731  0764.0000 
0297.7900  0010.0000  0261.1000  0041.5000  0764.0000  4429.8967  0004.4299  4784.5243  0004.7845  0004.5897  0764.0000 
0297.8900  0009.9000  0261.4500  0042.3000  0781.0000  4512.6603  0004.5127  4784.5243  0004.7845  0004.6163  0781.0000 
0297.9900  0009.9000  0258.3000  0042.9000  0791.0000  4771.4837  0004.7715  4823.7869  0004.8238  0004.6967  0791.0000 
0298.0900  0009.9000  0258.1000  0042.9000  0791.0000  4966.2335  0004.9662  4881.1584  0004.8812  0004.8632  0791.0000 
0298.1900  0010.0750  0259.5500  0041.7000  0783.0000  5177.6084  0005.1776  4933.0451  0004.9330  0005.0822  0783.0000 
0298.2900  0010.1000  0260.5000  0041.8000  0798.0000  5371.1801  0005.3712  5247.0562  0005.2471  0005.2018  0798.0000 
0298.3900  0010.0000  0261.4500  0041.8000  0782.0000  5591.2385  0005.5912  5247.0562  0005.2471  0005.2385  0782.0000 
0298.4900  0010.1000  0262.3000  0041.9000  0782.0000  5762.7860  0005.7628  5062.9331  0005.0629  0005.3869  0782.0000 
0298.5900  0010.1000  0262.9000  0041.9000  0806.0000  5947.8533  0005.9479  5062.9331  0005.0629  0005.5220  0806.0000 
0298.6900  0010.0000  0263.4200  0042.0000  0791.0000  6174.1870  0006.1742  5288.1980  0005.2882  0005.6187  0791.0000 
0298.7900  0010.0000  0264.5000  0041.8000  0767.0000  6388.3429  0006.3883  5288.1980  0005.2882  0005.8146  0767.0000 
0298.8900  0010.0000  0265.7000  0041.7000  0754.0000  6636.5382  0006.6365  5473.1924  0005.4732  0006.0901  0754.0000 
0298.9900  0010.0000  0266.8000  0041.6000  0774.0000  6722.4640  0006.7225  5845.8221  0005.8458  0006.3201  0774.0000 
0299.0900  0010.0800  0268.1600  0041.5000  0801.0000  6724.9841  0006.7250  6009.6906  0006.0097  0006.3937  0801.0000 
0299.1900  0010.1000  0269.4000  0041.6000  0801.0000  6731.7385  0006.7317  6077.7695  0006.0778  0006.4014  0801.0000 
0299.2900  0010.0000  0270.2000  0041.6000  0788.0000  6664.6928  0006.6647  6077.7695  0006.0778  0006.4473  0788.0000 
0299.3900  0010.0000  0270.4200  0041.8000  0788.0000  6791.2765  0006.7913  6194.8672  0006.1949  0006.4656  0788.0000 
0299.4900  0010.1000  0271.3000  0041.6000  0830.0000  6882.6517  0006.8827  6215.9581  0006.2160  0006.6228  0830.0000 
0299.5900  0010.1000  0272.1000  0041.4000  0830.0000  7082.0097  0007.0820  6485.8116  0006.4858  0006.6723  0830.0000 
0299.6900  0010.1000  0273.1385  0041.3154  0768.0000  7182.2198  0007.1822  6485.8116  0006.4858  0006.7142  0768.0000 
0299.7900  0010.0000  0274.2000  0041.2000  0768.0000  7133.9892  0007.1340  6304.8820  0006.3049  0006.7340  0768.0000 
0299.8900  0010.0000  0275.9000  0041.5000  0786.0000  7240.0709  0007.2401  6251.3271  0006.2513  0006.7703  0786.0000 
0299.9900  0010.1000  0277.6500  0041.2000  0789.0000  7640.6056  0007.6406  6455.5138  0006.4555  0006.8646  0789.0000 
0300.0900  0010.0000  0278.9000  0041.5000  0785.0000  7788.3356  0007.7883  6474.3409  0006.4743  0007.1594  0785.0000 
0300.1900  0010.1000  0279.8000  0041.4000  0785.0000  7627.7328  0007.6277  6667.5357  0006.6675  0007.2956  0785.0000 
0300.2900  0010.1000  0280.5500  0041.3000  0776.0000  7687.7141  0007.6877  6987.4920  0006.9875  0007.3911  0776.0000 
0300.3900  0010.1000  0281.0500  0041.5000  0789.0000  7817.2561  0007.8173  7197.9704  0007.1980  0007.4778  0789.0000 
0300.4900  0010.2000  0282.6000  0040.9000  0789.0000  7981.2915  0007.9813  7273.8688  0007.2739  0007.6565  0789.0000 
0300.5900  0010.5000  0283.9000  0040.6000  0794.0000  8032.8503  0008.0329  7532.9668  0007.5330  0007.8405  0794.0000 
0300.6900  0009.3000  0285.1000  0043.1000  0783.0000  7926.7852  0007.9268  7719.9994  0007.7200  0007.8764  0783.0000 
0300.7900  0009.3000  0283.6000  0043.1000  0769.0000  7914.3330  0007.9143  7521.6868  0007.5217  0007.6947  0769.0000 
0300.8900  0010.4000  0285.7000  0041.0000  0758.0000  7991.0808  0007.9911  7411.1872  0007.4112  0007.7671  0758.0000 
0300.9900  0010.5000  0286.6500  0041.2000  0772.0000  8094.3751  0008.0944  7680.7441  0007.6807  0007.9222  0772.0000 
0301.0900  0010.5000  0287.6000  0040.8000  0784.0000  8120.6759  0008.1207  7879.0180  0007.8790  0008.0072  0784.0000 
0301.1900  0010.4000  0287.4000  0041.3000  0785.0000  8217.0022  0008.2170  7919.4054  0007.9194  0008.0669  0785.0000 
0301.2900  0010.5000  0288.2000  0040.9000  0785.0000  8265.0966  0008.2651  8052.4699  0008.0525  0007.9910  0785.0000 
0301.3900  0010.5000  0289.2000  0040.9000  0783.0000  8034.6767  0008.0347  7673.2010  0007.6732  0007.8061  0783.0000 
0301.4900  0010.5000  0289.2000  0041.2000  0789.0000  8138.8056  0008.1388  7495.9056  0007.4959  0007.7653  0789.0000 
