~Version Information Section
VERS.                         2.0                 : CWLS log ASCII Standard -VERSION 2.0
WRAP.                         NO                  : One line per depth step
~Well Information Section
STRT.m                        0.0900          : Start index
STOP.m                        1103.4900           : Stop index
STEP.m                        0.1                 : Index step
NULL.                         -999.25             : NULL VALUE
DATE.                         19.11.2013          : Date of recording
TIME.                         22.05               : Time of recording
COMP.                         Lukoil              : Customer company name
WELL.                         1057                : Well name
FLD.                          HAUZAK              : Field name
LOC.                          HAUZAK              : Well location
SRVC.                         PITC                : Logging company
BUSH.                                             : Bush
CTRY.                         Uzbekistan          : Country
STAT.                                             : State
CNTY.                                             : County
API.                                              : API number
PBR.                          1.24                : Plotnost'
VBR.                          50                  : Vyazkost'
VO.                           5.6                 : Vodootdacha
OPER.           Mihaylov I. A. +998907105999      : operator
~Curve Information Section
DEPT.m                                            : 
DEVI.deg                                          : Зенит(гр)
VIZIR.deg                                          : Визир(гр)
AZIM.deg                                          : Азимут(гр)
SPED.mph                                          : Скорость(м/ч)
GRC1.cpm                                       : ГК1(имп/мин)
GR1.ur/h                                         : ГК1(мкр/ч)
GRC2.cpm                                       : ГК2(имп/мин)
GR2.ur/h                                         : ГК2(мкр/ч)
GR.ur/h                                           : ГК(мкр/ч)
SPED.mph                                          : Скорость(м/ч)
~Other Information Section
#    File was produced by KarSar 500 (c) GeoFT    #
Имя записи                                        : Каскад [4].KAR
Дата конвертации                                  : 19.11.2013 23:14:51
Прибор                                            : Каскад
Режим                                             : Основной
Калибровка                                        : ГК-Т № 412 + ИФМ-К-76 № 568
~ASCII Log Data
# ...
0006.7900  -0999.2500 -0999.2500 -0999.2500 0558.0000  -0999.2500 -0999.2500 -0999.2500 -0999.2500 -0999.2500 0558.0000 
0006.8900  -0999.2500 -0999.2500 -0999.2500 0565.0000  -0999.2500 -0999.2500 -0999.2500 -0999.2500 -0999.2500 0565.0000 
0006.9900  -0999.2500 -0999.2500 -0999.2500 0570.0000  -0999.2500 -0999.2500 -0999.2500 -0999.2500 -0999.2500 0570.0000 
0007.0900  -0999.2500 -0999.2500 -0999.2500 0585.0000  -0999.2500 -0999.2500 -0999.2500 -0999.2500 -0999.2500 0585.0000 
0007.1900  -0999.2500 -0999.2500 -0999.2500 0622.0000  -0999.2500 -0999.2500 -0999.2500 -0999.2500 -0999.2500 0622.0000 
0007.2900  -0999.2500 -0999.2500 -0999.2500 0630.0000  -0999.2500 -0999.2500 -0999.2500 -0999.2500 -0999.2500 0630.0000 
0007.3900  -0999.2500 -0999.2500 -0999.2500 0633.0000  -0999.2500 -0999.2500 -0999.2500 -0999.2500 -0999.2500 0633.0000 
0007.4900  -0999.2500 -0999.2500 -0999.2500 0643.0000  -0999.2500 -0999.2500 -0999.2500 -0999.2500 -0999.2500 0643.0000 
0007.5900  -0999.2500 -0999.2500 -0999.2500 0643.0000  -0999.2500 -0999.2500 -0999.2500 -0999.2500 -0999.2500 0643.0000 
0007.6900  -0999.2500 -0999.2500 -0999.2500 0623.0000  -0999.2500 -0999.2500 -0999.2500 -0999.2500 -0999.2500 0623.0000 
0007.7900  -0999.2500 -0999.2500 -0999.2500 0605.0000  -0999.2500 -0999.2500 -0999.2500 -0999.2500 -0999.2500 0605.0000 
0007.8900  -0999.2500 -0999.2500 -0999.2500 0567.0000  -0999.2500 -0999.2500 -0999.2500 -0999.2500 -0999.2500 0567.0000 
0007.9900  -0999.2500 -0999.2500 -0999.2500 0555.0000  -0999.2500 -0999.2500 -0999.2500 -0999.2500 -0999.2500 0555.0000 
0008.0900  -0999.2500 -0999.2500 -0999.2500 0555.0000  -0999.2500 -0999.2500 -0999.2500 -0999.2500 -0999.2500 0555.0000 
0008.1900  -0999.2500 -0999.2500 -0999.2500 0586.0000  -0999.2500 -0999.2500 -0999.2500 -0999.2500 -0999.2500 0586.0000 
0008.2900  -0999.2500 -0999.2500 -0999.2500 0586.8333  -0999.2500 -0999.2500 -0999.2500 -0999.2500 -0999.2500 0586.8333 
0008.3900  -0999.2500 -0999.2500 -0999.2500 0591.0000  -0999.2500 -0999.2500 -0999.2500 -0999.2500 -0999.2500 0591.0000 
0008.4900  -0999.2500 -0999.2500 -0999.2500 0610.0000  -0999.2500 -0999.2500 -0999.2500 -0999.2500 -0999.2500 0610.0000 
0008.5900  -0999.2500 -0999.2500 -0999.2500 0631.0000  -0999.2500 -0999.2500 -0999.2500 -0999.2500 -0999.2500 0631.0000 
0008.6900  -0999.2500 -0999.2500 -0999.2500 0631.0000  -0999.2500 -0999.2500 -0999.2500 -0999.2500 -0999.2500 0631.0000 
0008.7900  -0999.2500 -0999.2500 -0999.2500 0614.0000  -0999.2500 -0999.2500 -0999.2500 -0999.2500 -0999.2500 0614.0000 
0008.8900  -0999.2500 -0999.2500 -0999.2500 0626.0000  5820.4884  0005.8205  -0999.2500 -0999.2500 -0999.2500 0626.0000 
0008.9900  -0999.2500 -0999.2500 -0999.2500 0628.0000  5738.0318  0005.7380  5573.5994  0005.5736  0005.5997  0628.0000 
0009.0900  -0999.2500 -0999.2500 -0999.2500 0637.0000  5642.7281  0005.6427  5327.4845  0005.3275  0005.5324  0637.0000 
0009.1900  -0999.2500 -0999.2500 -0999.2500 0624.0000  5482.3529  0005.4824  5327.4845  0005.3275  0005.4715  0624.0000 
0009.2900  -0999.2500 -0999.2500 -0999.2500 0611.0000  5244.9524  0005.2450  5299.8057  0005.2998  0005.3319  0611.0000 
0009.3900  -0999.2500 -0999.2500 -0999.2500 0596.0000  5037.3092  0005.0373  5176.1012  0005.1761  0005.1127  0596.0000 
0009.4900  -0999.2500 -0999.2500 -0999.2500 0620.0000  4840.6478  0004.8406  4963.5078  0004.9635  0004.9082  0620.0000 
0009.5900  -0999.2500 -0999.2500 -0999.2500 0644.0000  4619.5309  0004.6195  4756.3516  0004.7564  0004.7734  0644.0000 
0009.6900  -0999.2500 -0999.2500 -0999.2500 0650.0000  4550.5866  0004.5506  4718.6712  0004.7187  0004.6118  0650.0000 
0009.7900  -0999.2500 -0999.2500 -0999.2500 0634.0000  4831.4947  0004.8315  4604.1999  0004.6042  0004.5774  0634.0000 
0009.8900  -0999.2500 -0999.2500 -0999.2500 0625.0000  4909.4613  0004.9095  4473.1175  0004.4731  0004.6945  0625.0000 
0009.9900  -0999.2500 -0999.2500 -0999.2500 0625.0000  4916.4475  0004.9164  4473.1175  0004.4731  0004.7484  0625.0000 
0010.0900  -0999.2500 -0999.2500 -0999.2500 0624.0000  4948.0085  0004.9480  4592.9518  0004.5930  0004.7825  0624.0000 
0010.1900  -0999.2500 -0999.2500 -0999.2500 0624.0000  4963.8167  0004.9638  4667.8845  0004.6679  0004.9081  0624.0000 
0010.2900  -0999.2500 -0999.2500 -0999.2500 0640.0000  4862.5306  0004.8625  4911.7160  0004.9117  0004.9378  0640.0000 
0010.3900  -0999.2500 -0999.2500 -0999.2500 0641.0000  4821.5836  0004.8216  4911.7160  0004.9117  0004.8982  0641.0000 
0010.4900  -0999.2500 -0999.2500 -0999.2500 0641.0000  5071.5807  0005.0716  4956.6404  0004.9566  0004.9785  0641.0000 
0010.5900  -0999.2500 -0999.2500 -0999.2500 0644.0000  4964.4524  0004.9645  4956.6404  0004.9566  0005.0008  0644.0000 
0010.6900  -0999.2500 -0999.2500 -0999.2500 0648.0000  4871.9022  0004.8719  4815.6049  0004.8156  0004.9265  0648.0000 
0010.7900  -0999.2500 -0999.2500 -0999.2500 0642.0000  4830.3095  0004.8303  4939.0864  0004.9391  0004.8930  0642.0000 
0010.8900  -0999.2500 -0999.2500 -0999.2500 0626.0000  4823.7428  0004.8237  4939.0864  0004.9391  0004.8738  0626.0000 
0010.9900  -0999.2500 -0999.2500 -0999.2500 0601.0000  4902.5818  0004.9026  4918.7778  0004.9188  0004.8075  0601.0000 
0011.0900  -0999.2500 -0999.2500 -0999.2500 0601.0000  4958.4686  0004.9585  4734.7796  0004.7348  0004.9171  0601.0000 
0011.1900  -0999.2500 -0999.2500 -0999.2500 0615.0000  4972.4332  0004.9724  4971.1418  0004.9711  0004.9485  0615.0000 
0011.2900  -0999.2500 -0999.2500 -0999.2500 0621.0000  4931.2860  0004.9313  4971.1418  0004.9711  0004.9372  0621.0000 
0011.3900  -0999.2500 -0999.2500 -0999.2500 0623.0000  4768.1034  0004.7681  4901.9022  0004.9019  0004.9458  0623.0000 
0011.4900  -0999.2500 -0999.2500 -0999.2500 0614.0000  4704.1388  0004.7041  4953.4981  0004.9535  0004.7907  0614.0000 
0011.5900  -0999.2500 -0999.2500 -0999.2500 0625.0000  4906.7108  0004.9067  4804.9660  0004.8050  0004.7546  0625.0000 
0011.6900  -0999.2500 -0999.2500 -0999.2500 0629.0000  4944.0050  0004.9440  4804.9660  0004.8050  0004.9573  0629.0000 
0011.7900  -0999.2500 -0999.2500 -0999.2500 0629.0000  4976.9484  0004.9769  5014.7303  0005.0147  0004.9762  0629.0000 
0011.8900  -0999.2500 -0999.2500 -0999.2500 0631.0000  5039.8764  0005.0399  5014.7303  0005.0147  0004.9997  0631.0000 
0011.9900  -0999.2500 -0999.2500 -0999.2500 0625.0000  5135.4535  0005.1355  5022.2723  0005.0223  0005.0750  0625.0000 
0012.0900  -0999.2500 -0999.2500 -0999.2500 0615.0000  5166.9784  0005.1670  5123.0279  0005.1230  0005.1481  0615.0000 
0012.1900  -0999.2500 -0999.2500 -0999.2500 0615.0000  5095.4554  0005.0955  5157.1155  0005.1571  0005.2077  0615.0000 
0012.2900  -0999.2500 -0999.2500 -0999.2500 0621.0000  5031.7038  0005.0317  5342.7180  0005.3427  0005.2191  0621.0000 
0012.3900  -0999.2500 -0999.2500 -0999.2500 0629.0000  5000.6986  0005.0007  5342.7180  0005.3427  0005.0640  0629.0000 
0012.4900  -0999.2500 -0999.2500 -0999.2500 0629.0000  4979.5787  0004.9796  5089.2670  0005.0893  0005.0450  0629.0000 
0012.5900  -0999.2500 -0999.2500 -0999.2500 0634.0000  5185.5691  0005.1856  5075.9183  0005.0759  0005.0133  0634.0000 
0012.6900  -0999.2500 -0999.2500 -0999.2500 0650.0000  5394.1621  0005.3942  5049.5303  0005.0495  0005.1238  0650.0000 
0012.7900  -0999.2500 -0999.2500 -0999.2500 0650.0000  5441.3910  0005.4414  5024.2360  0005.0242  0005.2750  0650.0000 
0012.8900  -0999.2500 -0999.2500 -0999.2500 0644.0000  5327.3718  0005.3274  5169.1129  0005.1691  0005.3053  0644.0000 
0012.9900  -0999.2500 -0999.2500 -0999.2500 0635.0000  5203.6653  0005.2037  5169.1129  0005.1691  0005.1930  0635.0000 
0013.0900  -0999.2500 -0999.2500 -0999.2500 0635.0000  5019.1499  0005.0191  5044.1146  0005.0441  0005.0675  0635.0000 
0013.1900  -0999.2500 -0999.2500 -0999.2500 0649.0000  4923.8326  0004.9238  4911.3373  0004.9113  0004.9164  0649.0000 
0013.2900  -0999.2500 -0999.2500 -0999.2500 0651.0000  4909.7665  0004.9098  4815.1544  0004.8152  0004.8837  0651.0000 
0013.3900  -0999.2500 -0999.2500 -0999.2500 0658.0000  4978.4907  0004.9785  4815.1544  0004.8152  0004.8551  0658.0000 
