~Version Information Section
VERS.                         2.0                 : CWLS log ASCII Standard -VERSION 2.0
WRAP.                         NO                  : One line per depth step
~Well Information Section
STRT.m                        0.0900          : Start index
STOP.m                        1103.4900           : Stop index
STEP.m                        0.1                 : Index step
NULL.                         -999.25             : NULL VALUE
DATE.                         19.11.2013          : Date of recording
TIME.                         22.05               : Time of recording
COMP.                         Lukoil              : Customer company name
WELL.                         1057                : Well name
FLD.                          HAUZAK              : Field name
LOC.                          HAUZAK              : Well location
SRVC.                         PITC                : Logging company
BUSH.                                             : Bush
CTRY.                         Uzbekistan          : Country
STAT.                                             : State
CNTY.                                             : County
API.                                              : API number
PBR.                          1.24                : Plotnost'
VBR.                          50                  : Vyazkost'
VO.                           5.6                 : Vodootdacha
OPER.           Mihaylov I. A. +998907105999      : operator
~Curve Information Section
DEPT.m                                            : 
DEVI.deg                                          : Зенит(гр)
VIZIR.deg                                          : Визир(гр)
AZIM.deg                                          : Азимут(гр)
SPED.mph                                          : Скорость(м/ч)
GRC1.cpm                                       : ГК1(имп/мин)
GR1.ur/h                                         : ГК1(мкр/ч)
GRC2.cpm                                       : ГК2(имп/мин)
GR2.ur/h                                         : ГК2(мкр/ч)
GR.ur/h                                           : ГК(мкр/ч)
SPED.mph                                          : Скорость(м/ч)
~Other Information Section
#    File was produced by KarSar 500 (c) GeoFT    #
Имя записи                                        : Каскад [4].KAR
Дата конвертации                                  : 19.11.2013 23:14:51
Прибор                                            : Каскад
Режим                                             : Основной
Калибровка                                        : ГК-Т № 412 + ИФМ-К-76 № 568
~ASCII Log Data
# ...
0221.1900  0006.0000  0260.3000  0044.6000  0746.0000  4201.5870  0004.2016  4334.4075  0004.3344  0004.2437  0746.0000 
0221.2900  0006.0000  0259.9000  0044.5000  0753.0000  4073.0485  0004.0730  4230.5215  0004.2305  0004.2161  0753.0000 
0221.3900  0006.0000  0259.3750  0044.5000  0753.0000  4007.1525  0004.0072  4230.5215  0004.2305  0004.2668  0753.0000 
0221.4900  0006.0000  0259.0000  0044.4000  0750.0000  4251.9506  0004.2520  4392.1670  0004.3922  0004.3627  0750.0000 
0221.5900  0006.0000  0259.0000  0044.3000  0762.0000  4318.9796  0004.3190  4584.2197  0004.5842  0004.4393  0762.0000 
0221.6900  0006.0000  0259.0000  0044.4000  0746.0000  4485.2508  0004.4853  4631.9156  0004.6319  0004.3853  0746.0000 
0221.7900  0006.0000  0257.5200  0044.7000  0737.0000  4621.1383  0004.6211  4396.9289  0004.3969  0004.3696  0737.0000 
0221.8900  0006.0000  0256.7000  0044.7000  0734.0000  4653.1260  0004.6531  4360.0998  0004.3601  0004.4820  0734.0000 
0221.9900  0005.9000  0256.3000  0044.3000  0725.0000  4477.5207  0004.4775  4325.1041  0004.3251  0004.4891  0725.0000 
0222.0900  0006.0000  0255.8500  0044.3000  0725.0000  4463.1098  0004.4631  4365.1028  0004.3651  0004.4341  0725.0000 
0222.1900  0005.9000  0255.4000  0044.3000  0734.0000  4564.5154  0004.5645  4403.0909  0004.4031  0004.5488  0734.0000 
0222.2900  0005.9000  0254.6500  0044.4000  0739.0000  4512.3969  0004.5124  4623.9935  0004.6240  0004.6025  0739.0000 
0222.3900  0005.9000  0253.7000  0044.1000  0732.0000  4458.5194  0004.4585  4638.7983  0004.6388  0004.5520  0732.0000 
0222.4900  0005.9000  0252.4000  0044.1000  0751.0000  4602.1627  0004.6022  4591.5655  0004.5916  0004.5378  0751.0000 
0222.5900  0005.9000  0251.8500  0044.1000  0751.0000  4799.9978  0004.8000  4737.0222  0004.7370  0004.6816  0751.0000 
0222.6900  0005.9000  0251.3000  0044.1000  0743.0000  4870.6247  0004.8706  4739.3946  0004.7394  0004.7416  0743.0000 
0222.7900  0005.9000  0251.1000  0044.0000  0732.0000  4770.8914  0004.7709  4645.6377  0004.6456  0004.6620  0732.0000 
0222.8900  0005.8000  0250.6200  0043.9000  0730.0000  4700.1717  0004.7002  4402.8557  0004.4029  0004.6235  0730.0000 
0222.9900  0005.9000  0249.9000  0043.8000  0725.0000  4767.5057  0004.7675  4402.8557  0004.4029  0004.5804  0725.0000 
0223.0900  0005.8000  0249.5000  0044.3000  0732.0000  4801.0217  0004.8010  4513.2228  0004.5132  0004.5706  0732.0000 
0223.1900  0005.8000  0248.6000  0044.0000  0740.0000  4707.6885  0004.7077  4364.5058  0004.3645  0004.5828  0740.0000 
0223.2900  0005.8000  0248.2000  0043.9000  0760.0000  4770.0812  0004.7701  4364.5058  0004.3645  0004.6430  0760.0000 
0223.3900  0005.8000  0247.3000  0043.9000  0760.0000  4819.3204  0004.8193  4623.0550  0004.6231  0004.7159  0760.0000 
0223.4900  0005.8000  0246.1600  0044.1000  0755.0000  4783.3265  0004.7833  4658.1034  0004.6581  0004.7451  0755.0000 
0223.5900  0005.7000  0244.7000  0044.0000  0771.0000  4926.7792  0004.9268  4670.8894  0004.6709  0004.7488  0771.0000 
0223.6900  0005.7000  0243.6000  0043.8000  0772.0000  5088.9549  0005.0890  4724.9354  0004.7249  0004.8225  0772.0000 
0223.7900  0005.8000  0242.2000  0043.8000  0759.0000  5128.6934  0005.1287  4724.9354  0004.7249  0004.8968  0759.0000 
0223.8900  0005.7000  0241.1750  0043.8000  0754.0000  4858.7591  0004.8588  4687.6066  0004.6876  0004.9105  0754.0000 
0223.9900  0005.8000  0239.7500  0043.8000  0738.0000  4699.6896  0004.6997  4683.4032  0004.6834  0004.7769  0738.0000 
0224.0900  0005.7000  0237.7000  0043.8000  0722.0000  4801.5545  0004.8016  4743.1163  0004.7431  0004.7169  0722.0000 
0224.1900  0005.7000  0236.5800  0043.7000  0694.0000  4854.5383  0004.8545  4743.1163  0004.7431  0004.8167  0694.0000 
0224.2900  0005.8000  0235.4500  0043.6000  0694.0000  4489.3955  0004.4894  4832.3700  0004.8324  0004.6313  0694.0000 
0224.3900  0005.7000  0234.7000  0043.4000  0701.0000  4422.9216  0004.4229  4580.6230  0004.5806  0004.5782  0701.0000 
0224.4900  0005.7000  0234.4000  0043.3000  0697.0000  4482.7441  0004.4827  4580.6230  0004.5806  0004.6478  0697.0000 
0224.5900  0005.9000  0235.1000  0042.8000  0715.0000  4513.7908  0004.5138  4901.4515  0004.9015  0004.6936  0715.0000 
0224.6900  0005.7000  0233.5000  0044.3000  0728.0000  4347.6177  0004.3476  4901.4515  0004.9015  0004.7030  0728.0000 
0224.7900  0005.7000  0233.5000  0044.3000  0730.0000  4289.3204  0004.2893  4834.1510  0004.8342  0004.5222  0730.0000 
0224.8900  0005.9000  0233.6000  0043.9000  0730.0000  4454.8345  0004.4548  4686.6212  0004.6866  0004.4880  0730.0000 
0224.9900  0005.8000  0232.3000  0044.1000  0726.0000  4381.5783  0004.3816  4686.6212  0004.6866  0004.6755  0726.0000 
0225.0900  0005.8000  0233.6750  0043.0750  0708.0000  4343.0779  0004.3431  4915.1085  0004.9151  0004.6933  0708.0000 
0225.1900  0005.8000  0236.3000  0042.8000  0708.0000  4478.0228  0004.4780  4982.6951  0004.9827  0004.7257  0708.0000 
0225.2900  0006.0000  0237.1750  0043.4000  0734.0000  4494.3325  0004.4943  5042.7918  0005.0428  0004.7414  0734.0000 
0225.3900  0005.9000  0238.3000  0043.4000  0734.0000  4515.6181  0004.5156  4793.9758  0004.7940  0004.5591  0734.0000 
0225.4900  0005.9000  0238.8000  0043.4000  0725.0000  4666.8790  0004.6669  4613.2378  0004.6132  0004.5379  0725.0000 
0225.5900  0005.8000  0238.2000  0043.7000  0724.0000  4721.9561  0004.7220  4579.3716  0004.5794  0004.5853  0724.0000 
0225.6900  0005.9000  0238.2000  0043.3000  0735.0000  4500.5290  0004.5005  4461.8584  0004.4619  0004.5919  0735.0000 
0225.7900  0005.9000  0238.4000  0043.5000  0735.0000  4381.8679  0004.3819  4461.8584  0004.4619  0004.4833  0735.0000 
0225.8900  0006.0000  0239.4000  0043.0000  0711.0000  4266.7490  0004.2667  4494.9125  0004.4949  0004.3989  0711.0000 
0225.9900  0006.0000  0240.1200  0042.9000  0706.0000  4225.2775  0004.2253  4405.0553  0004.4051  0004.3152  0706.0000 
0226.0900  0005.9000  0239.6400  0043.5800  0711.0000  4358.4272  0004.3584  4370.6157  0004.3706  0004.2979  0711.0000 
0226.1900  0005.9000  0237.6000  0043.9000  0722.0000  4356.9734  0004.3570  4244.3332  0004.2443  0004.3173  0722.0000 
0226.2900  0005.9000  0234.7000  0044.1000  0734.0000  4368.7901  0004.3688  4244.3332  0004.2443  0004.3325  0734.0000 
0226.3900  0005.9000  0231.5000  0044.0000  0735.0000  4304.3437  0004.3043  4312.3518  0004.3124  0004.3681  0735.0000 
0226.4900  0005.9000  0229.9000  0043.2000  0739.0000  4416.6291  0004.4166  4379.3900  0004.3794  0004.3764  0739.0000 
0226.5900  0005.9000  0231.5000  0042.8000  0739.0000  4601.9147  0004.6019  4401.0700  0004.4011  0004.4373  0739.0000 
0226.6900  0005.9000  0240.7667  0040.2000  0756.0000  4798.1641  0004.7982  4446.9914  0004.4470  0004.5773  0756.0000 
0226.7900  0005.9000  0243.1000  0042.9000  0756.0000  4859.4047  0004.8594  4556.9235  0004.5569  0004.6499  0756.0000 
0226.8900  0005.9000  0244.7600  0043.1000  0733.0000  4813.2617  0004.8133  4556.9235  0004.5569  0004.7155  0733.0000 
0226.9900  0005.9000  0246.7000  0042.8000  0727.0000  4770.0635  0004.7701  4623.4410  0004.6234  0004.7292  0727.0000 
0227.0900  0005.9000  0248.5000  0042.7000  0717.0000  4685.0072  0004.6850  4623.4410  0004.6234  0004.7580  0717.0000 
0227.1900  0005.9000  0250.8400  0042.7000  0717.0000  4654.7859  0004.6548  4791.5502  0004.7916  0004.7983  0717.0000 
0227.2900  0006.0000  0253.1000  0042.9000  0731.0000  4770.2445  0004.7702  4954.1973  0004.9542  0004.8695  0731.0000 
0227.3900  0005.9000  0254.6250  0043.1000  0740.0000  4669.6966  0004.6697  5001.2579  0005.0013  0004.8858  0740.0000 
0227.4900  0006.0000  0255.4500  0043.4000  0719.0000  4764.2142  0004.7642  5001.2579  0005.0013  0004.7721  0719.0000 
0227.5900  0006.1000  0256.5000  0043.3000  0719.0000  4816.8434  0004.8168  4860.3230  0004.8603  0004.7509  0719.0000 
0227.6900  0006.0000  0257.4000  0043.4000  0736.0000  4475.8249  0004.4758  4770.4943  0004.7705  0004.7937  0736.0000 
0227.7900  0006.0000  0258.3000  0043.6000  0736.0000  4394.3326  0004.3943  4770.4943  0004.7705  0004.6198  0736.0000 
