~Version Information Section
VERS.                         2.0                 : CWLS log ASCII Standard -VERSION 2.0
WRAP.                         NO                  : One line per depth step
~Well Information Section
STRT.m                        0.0900          : Start index
STOP.m                        1103.4900           : Stop index
STEP.m                        0.1                 : Index step
NULL.                         -999.25             : NULL VALUE
DATE.                         19.11.2013          : Date of recording
TIME.                         22.05               : Time of recording
COMP.                         Lukoil              : Customer company name
WELL.                         1057                : Well name
FLD.                          HAUZAK              : Field name
LOC.                          HAUZAK              : Well location
SRVC.                         PITC                : Logging company
BUSH.                                             : Bush
CTRY.                         Uzbekistan          : Country
STAT.                                             : State
CNTY.                                             : County
API.                                              : API number
PBR.                          1.24                : Plotnost'
VBR.                          50                  : Vyazkost'
VO.                           5.6                 : Vodootdacha
OPER.           Mihaylov I. A. +998907105999      : operator
~Curve Information Section
DEPT.m                                            : 
DEVI.deg                                          : Зенит(гр)
VIZIR.deg                                          : Визир(гр)
AZIM.deg                                          : Азимут(гр)
SPED.mph                                          : Скорость(м/ч)
GRC1.cpm                                       : ГК1(имп/мин)
GR1.ur/h                                         : ГК1(мкр/ч)
GRC2.cpm                                       : ГК2(имп/мин)
GR2.ur/h                                         : ГК2(мкр/ч)
GR.ur/h                                           : ГК(мкр/ч)
SPED.mph                                          : Скорость(м/ч)
~Other Information Section
#    File was produced by KarSar 500 (c) GeoFT    #
Имя записи                                        : Каскад [4].KAR
Дата конвертации                                  : 19.11.2013 23:14:51
Прибор                                            : Каскад
Режим                                             : Основной
Калибровка                                        : ГК-Т № 412 + ИФМ-К-76 № 568
~ASCII Log Data
# ...
0442.2900  0016.5000  0336.3000  0043.5000  0748.0000  7111.7918  0007.1118  6992.4893  0006.9925  0006.9619  0748.0000 
0442.3900  0016.6000  0336.6000  0043.4000  0756.0000  7257.3479  0007.2573  6864.0184  0006.8640  0006.9130  0756.0000 
0442.4900  0016.6000  0336.9000  0043.4000  0766.0000  7329.0032  0007.3290  6716.9268  0006.7169  0006.8962  0766.0000 
0442.5900  0016.5000  0336.9000  0043.6000  0768.7000  7079.4829  0007.0795  6702.2544  0006.7023  0006.7980  0768.7000 
0442.6900  0016.5000  0337.1000  0043.4000  0762.0000  7149.1504  0007.1492  6436.6185  0006.4366  0006.7431  0762.0000 
0442.7900  0016.4000  0336.7000  0043.7000  0759.0000  6944.8121  0006.9448  6399.0103  0006.3990  0006.7738  0759.0000 
0442.8900  0016.4000  0336.6000  0043.8000  0784.0000  6743.6434  0006.7436  6396.4118  0006.3964  0006.7753  0784.0000 
0442.9900  0016.9000  0336.3000  0043.2000  0784.0000  6602.5561  0006.6026  6662.1677  0006.6622  0006.7235  0784.0000 
0443.0900  0016.4000  0335.6200  0043.7600  0763.1000  6556.6111  0006.5566  6722.6068  0006.7226  0006.6894  0763.1000 
0443.1900  0016.3000  0335.0750  0043.9000  0758.0000  6554.0716  0006.5541  6797.6343  0006.7976  0006.7381  0758.0000 
0443.2900  0016.8000  0334.5000  0043.3000  0758.0000  6591.2248  0006.5912  6934.7611  0006.9348  0006.6367  0758.0000 
0443.3900  0016.8000  0333.7000  0043.3000  0771.0000  6661.9761  0006.6620  6689.6338  0006.6896  0006.6079  0771.0000 
0443.4900  0016.6500  0333.5000  0043.6000  0771.0000  6685.6526  0006.6857  6660.8027  0006.6608  0006.7644  0771.0000 
0443.5900  0016.7000  0333.4000  0043.5750  0778.2000  6591.0497  0006.5910  6865.5983  0006.8656  0006.6918  0778.2000 
0443.6900  0016.6600  0333.1400  0043.6000  0779.0000  6689.9787  0006.6900  6735.0904  0006.7351  0006.6700  0779.0000 
0443.7900  0016.7000  0332.6000  0043.4000  0781.0000  6737.7067  0006.7377  6719.8570  0006.7199  0006.7519  0781.0000 
0443.8900  0016.6000  0332.4000  0043.6000  0776.0000  6526.5058  0006.5265  6888.3235  0006.8883  0006.6590  0776.0000 
0443.9900  0016.6000  0332.2500  0043.6000  0763.0000  6670.1394  0006.6701  6733.3450  0006.7333  0006.5705  0763.0000 
0444.0900  0016.6750  0332.1000  0043.5000  0746.8000  6734.2772  0006.7343  6602.5205  0006.6025  0006.6708  0746.8000 
0444.1900  0016.5000  0331.9000  0043.6000  0742.0000  6757.4010  0006.7574  6588.5014  0006.5885  0006.7491  0742.0000 
0444.2900  0016.7000  0331.9000  0043.6000  0736.0000  6797.3044  0006.7973  6839.2916  0006.8393  0006.7859  0736.0000 
0444.3900  0016.5500  0332.1500  0043.6500  0743.0000  6621.0759  0006.6211  6858.6136  0006.8586  0006.7504  0743.0000 
0444.4900  0016.5000  0332.3000  0043.4000  0753.0000  6815.7395  0006.8157  6786.8213  0006.7868  0006.7292  0753.0000 
0444.5900  0016.7000  0332.4000  0043.4000  0757.5000  6829.0658  0006.8291  6687.3422  0006.6873  0006.7558  0757.5000 
0444.6900  0016.5000  0332.4000  0043.7000  0752.0000  6771.9820  0006.7720  6668.2831  0006.6683  0006.8088  0752.0000 
0444.7900  0016.4000  0332.6000  0043.4000  0748.0000  6749.0381  0006.7490  6803.2487  0006.8032  0006.7020  0748.0000 
0444.8900  0016.8000  0332.6000  0043.3000  0766.0000  6680.8588  0006.6809  6617.6682  0006.6177  0006.6487  0766.0000 
0444.9900  0016.7000  0332.7000  0043.6000  0766.0000  6617.0993  0006.6171  6480.2407  0006.4802  0006.6218  0766.0000 
0445.0900  0016.6000  0332.3000  0043.6000  0752.0000  6681.4623  0006.6815  6467.4076  0006.4674  0006.4840  0752.0000 
0445.1900  0016.7000  0332.2000  0043.4000  0749.0000  6577.6414  0006.5776  6319.2238  0006.3192  0006.4509  0749.0000 
0445.2900  0016.7000  0332.5000  0043.6000  0748.0000  6520.9358  0006.5209  6247.4856  0006.2475  0006.4111  0748.0000 
0445.3900  0016.6000  0331.8800  0043.6000  0753.0000  6420.7726  0006.4208  6243.1194  0006.2431  0006.3948  0753.0000 
0445.4900  0016.6000  0331.3000  0043.7000  0760.0000  6572.5285  0006.5725  6374.1796  0006.3742  0006.4557  0760.0000 
0445.5900  0016.6000  0331.2000  0043.5000  0764.5000  6659.4386  0006.6594  6505.1363  0006.5051  0006.6029  0764.5000 
0445.6900  0016.5000  0330.6000  0043.9000  0765.0000  6695.6911  0006.6957  6616.0555  0006.6161  0006.6767  0765.0000 
0445.7900  0016.7000  0330.7000  0043.5000  0769.0000  6733.6005  0006.7336  6701.8341  0006.7018  0006.7548  0769.0000 
0445.8900  0016.6000  0330.7000  0043.5000  0770.0000  6789.6323  0006.7896  6821.1231  0006.8211  0006.8288  0770.0000 
0445.9900  0016.6000  0330.6000  0043.5400  0771.0000  6932.4429  0006.9324  6931.5928  0006.9316  0006.8746  0771.0000 
0446.0900  0016.6800  0330.3200  0043.5000  0762.9000  7169.6552  0007.1697  6954.3320  0006.9543  0006.8825  0762.9000 
0446.1900  0016.7000  0329.9000  0043.5000  0745.0000  7437.7931  0007.4378  6776.8487  0006.7768  0007.0003  0745.0000 
0446.2900  0016.6000  0329.1400  0043.6000  0743.0000  7518.8216  0007.5188  6756.9822  0006.7570  0007.1566  0743.0000 
0446.3900  0016.6600  0328.5200  0043.5000  0752.0000  7605.5423  0007.6055  6852.3416  0006.8523  0007.1876  0752.0000 
0446.4900  0016.7000  0327.7000  0043.5000  0755.0000  7784.2354  0007.7842  6874.2454  0006.8742  0007.2441  0755.0000 
0446.5900  0016.5000  0327.1000  0043.6000  0766.7000  7838.5768  0007.8386  6876.2370  0006.8762  0007.2943  0766.7000 
0446.6900  0016.5000  0326.7000  0043.5000  0776.0000  7404.1105  0007.4041  6776.6796  0006.7767  0007.3028  0776.0000 
0446.7900  0016.7000  0326.3600  0043.5000  0776.0000  7157.3261  0007.1573  6879.5421  0006.8795  0007.0738  0776.0000 
0446.8900  0016.5000  0326.2000  0043.6000  0776.0000  7089.2224  0007.0892  6892.0336  0006.8920  0006.9781  0776.0000 
0446.9900  0016.8000  0326.4000  0043.3000  0805.0000  7219.9034  0007.2199  6742.9916  0006.7430  0007.0577  0805.0000 
0447.0900  0016.5000  0326.1000  0043.6000  0772.6000  7133.1144  0007.1331  6931.6407  0006.9316  0007.0808  0772.6000 
0447.1900  0016.5000  0326.6000  0043.3000  0746.0000  7202.3878  0007.2024  6745.9603  0006.7460  0006.8695  0746.0000 
0447.2900  0016.7000  0326.9667  0043.3000  0746.0000  7058.2431  0007.0582  6598.4318  0006.5984  0006.8470  0746.0000 
0447.3900  0016.6000  0327.2750  0043.4000  0741.0000  6971.4066  0006.9714  6465.8027  0006.4658  0006.7200  0741.0000 
0447.4900  0016.8000  0327.8000  0043.2000  0756.0000  6769.2087  0006.7692  6402.2637  0006.4023  0006.6130  0756.0000 
0447.5900  0016.6000  0328.6400  0043.2000  0760.5000  6684.1507  0006.6842  6238.2122  0006.2382  0006.4883  0760.5000 
0447.6900  0016.7000  0328.9600  0043.4000  0761.0000  6696.4312  0006.6964  6220.6059  0006.2206  0006.4619  0761.0000 
0447.7900  0016.7000  0329.2000  0043.3000  0753.0000  6665.6081  0006.6656  6261.0904  0006.2611  0006.3552  0753.0000 
0447.8900  0016.7000  0329.3000  0043.4000  0760.0000  6612.7238  0006.6127  6002.7047  0006.0027  0006.3241  0760.0000 
0447.9900  0016.6000  0329.4000  0043.4000  0763.0000  6509.4923  0006.5095  5973.7300  0005.9737  0006.3676  0763.0000 
0448.0900  0016.6000  0329.5400  0043.3600  0756.7000  6474.2729  0006.4743  6073.3462  0006.0733  0006.2844  0756.7000 
0448.1900  0016.7000  0329.8200  0043.3000  0750.0000  6627.0015  0006.6270  6047.0666  0006.0471  0006.3682  0750.0000 
0448.2900  0016.6000  0330.2000  0043.4000  0750.0000  6470.7746  0006.4708  6147.7946  0006.1478  0006.3913  0750.0000 
0448.3900  0016.6000  0330.7000  0043.5000  0745.0000  6372.7049  0006.3727  5971.2119  0005.9712  0006.2334  0745.0000 
0448.4900  0016.8000  0330.9600  0043.3600  0755.0000  6358.6785  0006.3587  5950.7180  0005.9507  0006.1274  0755.0000 
0448.5900  0016.8000  0331.3000  0043.5800  0761.3000  6293.5557  0006.2936  5868.4038  0005.8684  0006.1043  0761.3000 
0448.6900  0016.7000  0330.7000  0043.7000  0753.0000  6241.1495  0006.2411  5849.9472  0005.8499  0006.2184  0753.0000 
0448.7900  0016.7000  0331.6000  0043.4000  0752.0000  6478.9107  0006.4789  6145.0831  0006.1451  0006.3582  0752.0000 
0448.8900  0016.8000  0331.6000  0043.3000  0757.0000  6509.3705  0006.5094  6364.8391  0006.3648  0006.4768  0757.0000 
